{
"type": "FeatureCollection",
"name": "stations",
"features": [
{ "type": "Feature", "properties": { "name": "汉口北" }, "geometry": { "type": "Point", "coordinates": [ 114.329481, 30.711953 ] } },
{ "type": "Feature", "properties": { "name": "滠口新城" }, "geometry": { "type": "Point", "coordinates": [ 114.342372, 30.684553 ] } },
{ "type": "Feature", "properties": { "name": "滕子岗" }, "geometry": { "type": "Point", "coordinates": [ 114.341474, 30.674527 ] } },
{ "type": "Feature", "properties": { "name": "堤角" }, "geometry": { "type": "Point", "coordinates": [ 114.338273, 30.665863 ] } },
{ "type": "Feature", "properties": { "name": "新荣" }, "geometry": { "type": "Point", "coordinates": [ 114.334533, 30.655893 ] } },
{ "type": "Feature", "properties": { "name": "丹水池" }, "geometry": { "type": "Point", "coordinates": [ 114.330017, 30.643386 ] } },
{ "type": "Feature", "properties": { "name": "徐州新村" }, "geometry": { "type": "Point", "coordinates": [ 114.322936, 30.631171 ] } },
{ "type": "Feature", "properties": { "name": "二七路" }, "geometry": { "type": "Point", "coordinates": [ 114.318749, 30.625032 ] } },
{ "type": "Feature", "properties": { "name": "头道街" }, "geometry": { "type": "Point", "coordinates": [ 114.313923, 30.617818 ] } },
{ "type": "Feature", "properties": { "name": "黄浦路" }, "geometry": { "type": "Point", "coordinates": [ 114.308156, 30.608404 ] } },
{ "type": "Feature", "properties": { "name": "三阳路" }, "geometry": { "type": "Point", "coordinates": [ 114.301348, 30.598718 ] } },
{ "type": "Feature", "properties": { "name": "大智路" }, "geometry": { "type": "Point", "coordinates": [ 114.294967, 30.592506 ] } },
{ "type": "Feature", "properties": { "name": "循礼门" }, "geometry": { "type": "Point", "coordinates": [ 114.286831, 30.585307 ] } },
{ "type": "Feature", "properties": { "name": "友谊路" }, "geometry": { "type": "Point", "coordinates": [ 114.278415, 30.580865 ] } },
{ "type": "Feature", "properties": { "name": "利济北路" }, "geometry": { "type": "Point", "coordinates": [ 114.270119, 30.577433 ] } },
{ "type": "Feature", "properties": { "name": "崇仁路" }, "geometry": { "type": "Point", "coordinates": [ 114.261901, 30.573909 ] } },
{ "type": "Feature", "properties": { "name": "硚口路" }, "geometry": { "type": "Point", "coordinates": [ 114.250444, 30.571547 ] } },
{ "type": "Feature", "properties": { "name": "太平洋" }, "geometry": { "type": "Point", "coordinates": [ 114.240741, 30.574025 ] } },
{ "type": "Feature", "properties": { "name": "宗关" }, "geometry": { "type": "Point", "coordinates": [ 114.226424, 30.580526 ] } },
{ "type": "Feature", "properties": { "name": "汉西一路" }, "geometry": { "type": "Point", "coordinates": [ 114.218822, 30.585491 ] } },
{ "type": "Feature", "properties": { "name": "古田四路" }, "geometry": { "type": "Point", "coordinates": [ 114.211532, 30.589347 ] } },
{ "type": "Feature", "properties": { "name": "古田三路" }, "geometry": { "type": "Point", "coordinates": [ 114.20474, 30.593382 ] } },
{ "type": "Feature", "properties": { "name": "古田二路" }, "geometry": { "type": "Point", "coordinates": [ 114.196667, 30.597536 ] } },
{ "type": "Feature", "properties": { "name": "古田一路" }, "geometry": { "type": "Point", "coordinates": [ 114.183062, 30.604521 ] } },
{ "type": "Feature", "properties": { "name": "舵落口" }, "geometry": { "type": "Point", "coordinates": [ 114.169464, 30.609907 ] } },
{ "type": "Feature", "properties": { "name": "竹叶海" }, "geometry": { "type": "Point", "coordinates": [ 114.163868, 30.615064 ] } },
{ "type": "Feature", "properties": { "name": "额头湾" }, "geometry": { "type": "Point", "coordinates": [ 114.155941, 30.61846 ] } },
{ "type": "Feature", "properties": { "name": "五环大道" }, "geometry": { "type": "Point", "coordinates": [ 114.138907, 30.617699 ] } },
{ "type": "Feature", "properties": { "name": "东吴大道" }, "geometry": { "type": "Point", "coordinates": [ 114.128567, 30.624968 ] } },
{ "type": "Feature", "properties": { "name": "码头潭公园" }, "geometry": { "type": "Point", "coordinates": [ 114.123644, 30.631684 ] } },
{ "type": "Feature", "properties": { "name": "三店" }, "geometry": { "type": "Point", "coordinates": [ 114.120804, 30.649056 ] } },
{ "type": "Feature", "properties": { "name": "径河" }, "geometry": { "type": "Point", "coordinates": [ 114.120828, 30.659055 ] } },
{ "type": "Feature", "properties": { "name": "天河机场" }, "geometry": { "type": "Point", "coordinates": [ 114.216618, 30.770624 ] } },
{ "type": "Feature", "properties": { "name": "航空总部" }, "geometry": { "type": "Point", "coordinates": [ 114.227261, 30.732481 ] } },
{ "type": "Feature", "properties": { "name": "宋家岗" }, "geometry": { "type": "Point", "coordinates": [ 114.237299, 30.723137 ] } },
{ "type": "Feature", "properties": { "name": "巨龙大道" }, "geometry": { "type": "Point", "coordinates": [ 114.253845, 30.711596 ] } },
{ "type": "Feature", "properties": { "name": "盘龙城" }, "geometry": { "type": "Point", "coordinates": [ 114.259544, 30.700235 ] } },
{ "type": "Feature", "properties": { "name": "宏图大道" }, "geometry": { "type": "Point", "coordinates": [ 114.277759, 30.670353 ] } },
{ "type": "Feature", "properties": { "name": "常青城" }, "geometry": { "type": "Point", "coordinates": [ 114.25506, 30.658775 ] } },
{ "type": "Feature", "properties": { "name": "金银潭" }, "geometry": { "type": "Point", "coordinates": [ 114.242807, 30.650412 ] } },
{ "type": "Feature", "properties": { "name": "常青花园" }, "geometry": { "type": "Point", "coordinates": [ 114.242435, 30.640564 ] } },
{ "type": "Feature", "properties": { "name": "长港路" }, "geometry": { "type": "Point", "coordinates": [ 114.246021, 30.627168 ] } },
{ "type": "Feature", "properties": { "name": "汉口火车站" }, "geometry": { "type": "Point", "coordinates": [ 114.254961, 30.615485 ] } },
{ "type": "Feature", "properties": { "name": "范湖" }, "geometry": { "type": "Point", "coordinates": [ 114.260297, 30.606028 ] } },
{ "type": "Feature", "properties": { "name": "王家墩东" }, "geometry": { "type": "Point", "coordinates": [ 114.263288, 30.594245 ] } },
{ "type": "Feature", "properties": { "name": "青年路" }, "geometry": { "type": "Point", "coordinates": [ 114.264757, 30.585762 ] } },
{ "type": "Feature", "properties": { "name": "中山公园" }, "geometry": { "type": "Point", "coordinates": [ 114.272845, 30.581962 ] } },
{ "type": "Feature", "properties": { "name": "循礼门" }, "geometry": { "type": "Point", "coordinates": [ 114.285992, 30.585234 ] } },
{ "type": "Feature", "properties": { "name": "江汉路" }, "geometry": { "type": "Point", "coordinates": [ 114.292306, 30.579581 ] } },
{ "type": "Feature", "properties": { "name": "积玉桥" }, "geometry": { "type": "Point", "coordinates": [ 114.308679, 30.561284 ] } },
{ "type": "Feature", "properties": { "name": "螃蟹岬" }, "geometry": { "type": "Point", "coordinates": [ 114.317476, 30.553333 ] } },
{ "type": "Feature", "properties": { "name": "小龟山" }, "geometry": { "type": "Point", "coordinates": [ 114.32652, 30.551108 ] } },
{ "type": "Feature", "properties": { "name": "洪山广场" }, "geometry": { "type": "Point", "coordinates": [ 114.33598, 30.545667 ] } },
{ "type": "Feature", "properties": { "name": "中南路" }, "geometry": { "type": "Point", "coordinates": [ 114.332959, 30.537528 ] } },
{ "type": "Feature", "properties": { "name": "宝通寺" }, "geometry": { "type": "Point", "coordinates": [ 114.341206, 30.530349 ] } },
{ "type": "Feature", "properties": { "name": "街道口" }, "geometry": { "type": "Point", "coordinates": [ 114.353503, 30.526597 ] } },
{ "type": "Feature", "properties": { "name": "广埠屯" }, "geometry": { "type": "Point", "coordinates": [ 114.364207, 30.522437 ] } },
{ "type": "Feature", "properties": { "name": "虎泉" }, "geometry": { "type": "Point", "coordinates": [ 114.370478, 30.512359 ] } },
{ "type": "Feature", "properties": { "name": "杨家湾" }, "geometry": { "type": "Point", "coordinates": [ 114.382732, 30.505122 ] } },
{ "type": "Feature", "properties": { "name": "光谷广场" }, "geometry": { "type": "Point", "coordinates": [ 114.398936, 30.506016 ] } },
{ "type": "Feature", "properties": { "name": "珞雄路" }, "geometry": { "type": "Point", "coordinates": [ 114.404846, 30.50688 ] } },
{ "type": "Feature", "properties": { "name": "华中科技大学" }, "geometry": { "type": "Point", "coordinates": [ 114.414237, 30.50741 ] } },
{ "type": "Feature", "properties": { "name": "光谷大道" }, "geometry": { "type": "Point", "coordinates": [ 114.423817, 30.506535 ] } },
{ "type": "Feature", "properties": { "name": "佳园路" }, "geometry": { "type": "Point", "coordinates": [ 114.430905, 30.500021 ] } },
{ "type": "Feature", "properties": { "name": "武汉东站" }, "geometry": { "type": "Point", "coordinates": [ 114.431755, 30.486956 ] } },
{ "type": "Feature", "properties": { "name": "黄龙山路" }, "geometry": { "type": "Point", "coordinates": [ 114.430183, 30.477512 ] } },
{ "type": "Feature", "properties": { "name": "金融港北" }, "geometry": { "type": "Point", "coordinates": [ 114.420416, 30.461963 ] } },
{ "type": "Feature", "properties": { "name": "秀湖" }, "geometry": { "type": "Point", "coordinates": [ 114.421034, 30.447747 ] } },
{ "type": "Feature", "properties": { "name": "藏龙东街" }, "geometry": { "type": "Point", "coordinates": [ 114.429655, 30.437026 ] } },
{ "type": "Feature", "properties": { "name": "佛祖岭" }, "geometry": { "type": "Point", "coordinates": [ 114.439777, 30.438671 ] } },
{ "type": "Feature", "properties": { "name": "沌阳大道" }, "geometry": { "type": "Point", "coordinates": [ 114.157139, 30.489376 ] } },
{ "type": "Feature", "properties": { "name": "东风公司" }, "geometry": { "type": "Point", "coordinates": [ 114.166088, 30.500107 ] } },
{ "type": "Feature", "properties": { "name": "体育中心" }, "geometry": { "type": "Point", "coordinates": [ 114.170981, 30.506039 ] } },
{ "type": "Feature", "properties": { "name": "三角湖" }, "geometry": { "type": "Point", "coordinates": [ 114.179686, 30.516507 ] } },
{ "type": "Feature", "properties": { "name": "汉阳客运站" }, "geometry": { "type": "Point", "coordinates": [ 114.189057, 30.527807 ] } },
{ "type": "Feature", "properties": { "name": "四新大道" }, "geometry": { "type": "Point", "coordinates": [ 114.194631, 30.535228 ] } },
{ "type": "Feature", "properties": { "name": "陶家岭" }, "geometry": { "type": "Point", "coordinates": [ 114.201851, 30.545591 ] } },
{ "type": "Feature", "properties": { "name": "龙阳村" }, "geometry": { "type": "Point", "coordinates": [ 114.206329, 30.552879 ] } },
{ "type": "Feature", "properties": { "name": "王家湾" }, "geometry": { "type": "Point", "coordinates": [ 114.209641, 30.560785 ] } },
{ "type": "Feature", "properties": { "name": "宗关" }, "geometry": { "type": "Point", "coordinates": [ 114.224975, 30.580306 ] } },
{ "type": "Feature", "properties": { "name": "双墩" }, "geometry": { "type": "Point", "coordinates": [ 114.232026, 30.58666 ] } },
{ "type": "Feature", "properties": { "name": "武汉商务区" }, "geometry": { "type": "Point", "coordinates": [ 114.246459, 30.595975 ] } },
{ "type": "Feature", "properties": { "name": "云飞路" }, "geometry": { "type": "Point", "coordinates": [ 114.252144, 30.605164 ] } },
{ "type": "Feature", "properties": { "name": "范湖" }, "geometry": { "type": "Point", "coordinates": [ 114.261118, 30.607701 ] } },
{ "type": "Feature", "properties": { "name": "菱角湖" }, "geometry": { "type": "Point", "coordinates": [ 114.27579, 30.604121 ] } },
{ "type": "Feature", "properties": { "name": "香港路" }, "geometry": { "type": "Point", "coordinates": [ 114.284769, 30.605235 ] } },
{ "type": "Feature", "properties": { "name": "惠济二路" }, "geometry": { "type": "Point", "coordinates": [ 114.291463, 30.612937 ] } },
{ "type": "Feature", "properties": { "name": "赵家条" }, "geometry": { "type": "Point", "coordinates": [ 114.297076, 30.617866 ] } },
{ "type": "Feature", "properties": { "name": "罗家庄" }, "geometry": { "type": "Point", "coordinates": [ 114.303976, 30.623628 ] } },
{ "type": "Feature", "properties": { "name": "二七小路" }, "geometry": { "type": "Point", "coordinates": [ 114.307806, 30.628847 ] } },
{ "type": "Feature", "properties": { "name": "兴业路" }, "geometry": { "type": "Point", "coordinates": [ 114.30422, 30.641133 ] } },
{ "type": "Feature", "properties": { "name": "后湖大道" }, "geometry": { "type": "Point", "coordinates": [ 114.304127, 30.650284 ] } },
{ "type": "Feature", "properties": { "name": "市民之家" }, "geometry": { "type": "Point", "coordinates": [ 114.296806, 30.661297 ] } },
{ "type": "Feature", "properties": { "name": "武汉火车站" }, "geometry": { "type": "Point", "coordinates": [ 114.424376, 30.607375 ] } },
{ "type": "Feature", "properties": { "name": "杨春湖" }, "geometry": { "type": "Point", "coordinates": [ 114.416353, 30.6053 ] } },
{ "type": "Feature", "properties": { "name": "工业四路" }, "geometry": { "type": "Point", "coordinates": [ 114.405848, 30.607996 ] } },
{ "type": "Feature", "properties": { "name": "仁和路" }, "geometry": { "type": "Point", "coordinates": [ 114.38909, 30.605179 ] } },
{ "type": "Feature", "properties": { "name": "园林路" }, "geometry": { "type": "Point", "coordinates": [ 114.378123, 30.600224 ] } },
{ "type": "Feature", "properties": { "name": "罗家港" }, "geometry": { "type": "Point", "coordinates": [ 114.37154, 30.5928 ] } },
{ "type": "Feature", "properties": { "name": "铁机路" }, "geometry": { "type": "Point", "coordinates": [ 114.368895, 30.583897 ] } },
{ "type": "Feature", "properties": { "name": "岳家嘴" }, "geometry": { "type": "Point", "coordinates": [ 114.36201, 30.577109 ] } },
{ "type": "Feature", "properties": { "name": "东亭" }, "geometry": { "type": "Point", "coordinates": [ 114.355809, 30.570267 ] } },
{ "type": "Feature", "properties": { "name": "青鱼嘴" }, "geometry": { "type": "Point", "coordinates": [ 114.349884, 30.56372 ] } },
{ "type": "Feature", "properties": { "name": "楚河汉街" }, "geometry": { "type": "Point", "coordinates": [ 114.341415, 30.553848 ] } },
{ "type": "Feature", "properties": { "name": "洪山广场" }, "geometry": { "type": "Point", "coordinates": [ 114.336957, 30.545217 ] } },
{ "type": "Feature", "properties": { "name": "梅苑小区" }, "geometry": { "type": "Point", "coordinates": [ 114.326149, 30.530916 ] } },
{ "type": "Feature", "properties": { "name": "武昌火车站" }, "geometry": { "type": "Point", "coordinates": [ 114.316449, 30.530624 ] } },
{ "type": "Feature", "properties": { "name": "首义路" }, "geometry": { "type": "Point", "coordinates": [ 114.308531, 30.533612 ] } },
{ "type": "Feature", "properties": { "name": "复兴路" }, "geometry": { "type": "Point", "coordinates": [ 114.301349, 30.534307 ] } },
{ "type": "Feature", "properties": { "name": "拦江路" }, "geometry": { "type": "Point", "coordinates": [ 114.269012, 30.542917 ] } },
{ "type": "Feature", "properties": { "name": "钟家村" }, "geometry": { "type": "Point", "coordinates": [ 114.266158, 30.549283 ] } },
{ "type": "Feature", "properties": { "name": "汉阳火车站" }, "geometry": { "type": "Point", "coordinates": [ 114.252849, 30.551732 ] } },
{ "type": "Feature", "properties": { "name": "五里墩" }, "geometry": { "type": "Point", "coordinates": [ 114.241105, 30.553977 ] } },
{ "type": "Feature", "properties": { "name": "七里庙" }, "geometry": { "type": "Point", "coordinates": [ 114.231208, 30.556688 ] } },
{ "type": "Feature", "properties": { "name": "十里铺" }, "geometry": { "type": "Point", "coordinates": [ 114.219444, 30.55932 ] } },
{ "type": "Feature", "properties": { "name": "王家湾" }, "geometry": { "type": "Point", "coordinates": [ 114.210348, 30.562121 ] } },
{ "type": "Feature", "properties": { "name": "玉龙路" }, "geometry": { "type": "Point", "coordinates": [ 114.201403, 30.564519 ] } },
{ "type": "Feature", "properties": { "name": "永安堂" }, "geometry": { "type": "Point", "coordinates": [ 114.188919, 30.566446 ] } },
{ "type": "Feature", "properties": { "name": "孟家铺" }, "geometry": { "type": "Point", "coordinates": [ 114.173992, 30.565151 ] } },
{ "type": "Feature", "properties": { "name": "黄金口" }, "geometry": { "type": "Point", "coordinates": [ 114.145387, 30.564055 ] } },
{ "type": "Feature", "properties": { "name": "新天" }, "geometry": { "type": "Point", "coordinates": [ 114.126339, 30.552199 ] } },
{ "type": "Feature", "properties": { "name": "集贤" }, "geometry": { "type": "Point", "coordinates": [ 114.112285, 30.550087 ] } },
{ "type": "Feature", "properties": { "name": "知音" }, "geometry": { "type": "Point", "coordinates": [ 114.091765, 30.556845 ] } },
{ "type": "Feature", "properties": { "name": "新农" }, "geometry": { "type": "Point", "coordinates": [ 114.074791, 30.560522 ] } },
{ "type": "Feature", "properties": { "name": "凤凰路" }, "geometry": { "type": "Point", "coordinates": [ 114.060324, 30.563412 ] } },
{ "type": "Feature", "properties": { "name": "蔡甸广场" }, "geometry": { "type": "Point", "coordinates": [ 114.041735, 30.573054 ] } },
{ "type": "Feature", "properties": { "name": "临嶂大道" }, "geometry": { "type": "Point", "coordinates": [ 114.02859, 30.57179 ] } },
{ "type": "Feature", "properties": { "name": "新庙村" }, "geometry": { "type": "Point", "coordinates": [ 114.009379, 30.579826 ] } },
{ "type": "Feature", "properties": { "name": "柏林" }, "geometry": { "type": "Point", "coordinates": [ 113.994891, 30.582229 ] } },
{ "type": "Feature", "properties": { "name": "青龙山地铁小镇" }, "geometry": { "type": "Point", "coordinates": [ 114.334162, 30.318872 ] } },
{ "type": "Feature", "properties": { "name": "纸坊大街" }, "geometry": { "type": "Point", "coordinates": [ 114.324577, 30.344775 ] } },
{ "type": "Feature", "properties": { "name": "北华街" }, "geometry": { "type": "Point", "coordinates": [ 114.323569, 30.3581 ] } },
{ "type": "Feature", "properties": { "name": "谭鑫培公园" }, "geometry": { "type": "Point", "coordinates": [ 114.322041, 30.370536 ] } },
{ "type": "Feature", "properties": { "name": "江夏客厅" }, "geometry": { "type": "Point", "coordinates": [ 114.321746, 30.389156 ] } },
{ "type": "Feature", "properties": { "name": "大花岭" }, "geometry": { "type": "Point", "coordinates": [ 114.320107, 30.412329 ] } },
{ "type": "Feature", "properties": { "name": "新路村" }, "geometry": { "type": "Point", "coordinates": [ 114.318411, 30.441596 ] } },
{ "type": "Feature", "properties": { "name": "野芷湖" }, "geometry": { "type": "Point", "coordinates": [ 114.319502, 30.460928 ] } },
{ "type": "Feature", "properties": { "name": "板桥" }, "geometry": { "type": "Point", "coordinates": [ 114.313464, 30.474294 ] } },
{ "type": "Feature", "properties": { "name": "湖工大" }, "geometry": { "type": "Point", "coordinates": [ 114.313384, 30.483656 ] } },
{ "type": "Feature", "properties": { "name": "建安街" }, "geometry": { "type": "Point", "coordinates": [ 114.313759, 30.504025 ] } },
{ "type": "Feature", "properties": { "name": "瑞安街" }, "geometry": { "type": "Point", "coordinates": [ 114.3142, 30.514908 ] } },
{ "type": "Feature", "properties": { "name": "武昌火车站" }, "geometry": { "type": "Point", "coordinates": [ 114.316654, 30.532465 ] } },
{ "type": "Feature", "properties": { "name": "小东门" }, "geometry": { "type": "Point", "coordinates": [ 114.318461, 30.545012 ] } },
{ "type": "Feature", "properties": { "name": "螃蟹岬" }, "geometry": { "type": "Point", "coordinates": [ 114.317429, 30.552487 ] } },
{ "type": "Feature", "properties": { "name": "新河街" }, "geometry": { "type": "Point", "coordinates": [ 114.317111, 30.56256 ] } },
{ "type": "Feature", "properties": { "name": "湖北大学" }, "geometry": { "type": "Point", "coordinates": [ 114.32947, 30.577805 ] } },
{ "type": "Feature", "properties": { "name": "徐家棚" }, "geometry": { "type": "Point", "coordinates": [ 114.332095, 30.588494 ] } },
{ "type": "Feature", "properties": { "name": "取水楼" }, "geometry": { "type": "Point", "coordinates": [ 114.274655, 30.597634 ] } },
{ "type": "Feature", "properties": { "name": "王家墩东" }, "geometry": { "type": "Point", "coordinates": [ 114.261952, 30.593959 ] } },
{ "type": "Feature", "properties": { "name": "常码头" }, "geometry": { "type": "Point", "coordinates": [ 114.23479, 30.604632 ] } },
{ "type": "Feature", "properties": { "name": "园博园" }, "geometry": { "type": "Point", "coordinates": [ 114.225873, 30.618327 ] } },
{ "type": "Feature", "properties": { "name": "园博园北" }, "geometry": { "type": "Point", "coordinates": [ 114.223282, 30.636121 ] } },
{ "type": "Feature", "properties": { "name": "马池" }, "geometry": { "type": "Point", "coordinates": [ 114.225407, 30.655554 ] } },
{ "type": "Feature", "properties": { "name": "汤云海路" }, "geometry": { "type": "Point", "coordinates": [ 114.237858, 30.699759 ] } },
{ "type": "Feature", "properties": { "name": "巨龙大道" }, "geometry": { "type": "Point", "coordinates": [ 114.256459, 30.712764 ] } },
{ "type": "Feature", "properties": { "name": "腾龙大道" }, "geometry": { "type": "Point", "coordinates": [ 114.259856, 30.727857 ] } },
{ "type": "Feature", "properties": { "name": "天阳大道" }, "geometry": { "type": "Point", "coordinates": [ 114.270219, 30.765499 ] } },
{ "type": "Feature", "properties": { "name": "裕福路" }, "geometry": { "type": "Point", "coordinates": [ 114.278307, 30.785735 ] } },
{ "type": "Feature", "properties": { "name": "横店" }, "geometry": { "type": "Point", "coordinates": [ 114.289753, 30.804287 ] } },
{ "type": "Feature", "properties": { "name": "余彭塆" }, "geometry": { "type": "Point", "coordinates": [ 114.313943, 30.848219 ] } },
{ "type": "Feature", "properties": { "name": "青仔村(轨道产业基地)" }, "geometry": { "type": "Point", "coordinates": [ 114.332813, 30.882234 ] } },
{ "type": "Feature", "properties": { "name": "百泰路" }, "geometry": { "type": "Point", "coordinates": [ 114.358958, 30.883566 ] } },
{ "type": "Feature", "properties": { "name": "黄陂广场" }, "geometry": { "type": "Point", "coordinates": [ 114.378753, 30.880839 ] } },
{ "type": "Feature", "properties": { "name": "沿江大道科技馆" }, "geometry": { "type": "Point", "coordinates": [ 114.298674, 30.578854 ] } },
{ "type": "Feature", "properties": { "name": "沿江大道武汉关" }, "geometry": { "type": "Point", "coordinates": [ 114.297222, 30.574891 ] } },
{ "type": "Feature", "properties": { "name": "民权路王家巷" }, "geometry": { "type": "Point", "coordinates": [ 114.292982, 30.570399 ] } },
{ "type": "Feature", "properties": { "name": "民权路花楼街" }, "geometry": { "type": "Point", "coordinates": [ 114.287288, 30.572326 ] } },
{ "type": "Feature", "properties": { "name": "友谊路中山大道口" }, "geometry": { "type": "Point", "coordinates": [ 114.280976, 30.574966 ] } },
{ "type": "Feature", "properties": { "name": "友谊路自治街" }, "geometry": { "type": "Point", "coordinates": [ 114.278424, 30.579375 ] } },
{ "type": "Feature", "properties": { "name": "新华路协和医院" }, "geometry": { "type": "Point", "coordinates": [ 114.275842, 30.586215 ] } },
{ "type": "Feature", "properties": { "name": "新华路取水楼" }, "geometry": { "type": "Point", "coordinates": [ 114.272687, 30.594262 ] } },
{ "type": "Feature", "properties": { "name": "新华路北湖" }, "geometry": { "type": "Point", "coordinates": [ 114.271467, 30.600265 ] } },
{ "type": "Feature", "properties": { "name": "新华路马场角" }, "geometry": { "type": "Point", "coordinates": [ 114.269757, 30.606181 ] } },
{ "type": "Feature", "properties": { "name": "新华路万达" }, "geometry": { "type": "Point", "coordinates": [ 114.265933, 30.610337 ] } },
{ "type": "Feature", "properties": { "name": "新华路马场路协和肿瘤中心" }, "geometry": { "type": "Point", "coordinates": [ 114.264465, 30.612204 ] } },
{ "type": "Feature", "properties": { "name": "马场路福利路" }, "geometry": { "type": "Point", "coordinates": [ 114.261434, 30.61347 ] } },
{ "type": "Feature", "properties": { "name": "发展大道汉口火车站" }, "geometry": { "type": "Point", "coordinates": [ 114.254395, 30.614123 ] } },
{ "type": "Feature", "properties": { "name": "发展大道复兴二村" }, "geometry": { "type": "Point", "coordinates": [ 114.244739, 30.609795 ] } },
{ "type": "Feature", "properties": { "name": "发展大道复兴一村" }, "geometry": { "type": "Point", "coordinates": [ 114.238099, 30.607028 ] } },
{ "type": "Feature", "properties": { "name": "常码头公交停车场" }, "geometry": { "type": "Point", "coordinates": [ 114.237463, 30.607046 ] } },
{ "type": "Feature", "properties": { "name": "武昌火车站综合体" }, "geometry": { "type": "Point", "coordinates": [ 114.316929, 30.53082 ] } },
{ "type": "Feature", "properties": { "name": "中山路大东门" }, "geometry": { "type": "Point", "coordinates": [ 114.317867, 30.536888 ] } },
{ "type": "Feature", "properties": { "name": "武珞路阅马场" }, "geometry": { "type": "Point", "coordinates": [ 114.308783, 30.540671 ] } },
{ "type": "Feature", "properties": { "name": "黄鹤楼" }, "geometry": { "type": "Point", "coordinates": [ 114.304851, 30.543038 ] } },
{ "type": "Feature", "properties": { "name": "长江大桥汉阳桥头" }, "geometry": { "type": "Point", "coordinates": [ 114.277648, 30.554505 ] } },
{ "type": "Feature", "properties": { "name": "鹦鹉大道地铁琴台站" }, "geometry": { "type": "Point", "coordinates": [ 114.266515, 30.557513 ] } },
{ "type": "Feature", "properties": { "name": "武胜路泰合广场" }, "geometry": { "type": "Point", "coordinates": [ 114.268755, 30.572373 ] } },
{ "type": "Feature", "properties": { "name": "青年路地铁青年路站" }, "geometry": { "type": "Point", "coordinates": [ 114.265068, 30.585257 ] } },
{ "type": "Feature", "properties": { "name": "青年路雪松路" }, "geometry": { "type": "Point", "coordinates": [ 114.263465, 30.590251 ] } },
{ "type": "Feature", "properties": { "name": "青年路机场河" }, "geometry": { "type": "Point", "coordinates": [ 114.26346, 30.59953 ] } },
{ "type": "Feature", "properties": { "name": "青年路地铁范湖站" }, "geometry": { "type": "Point", "coordinates": [ 114.260419, 30.606244 ] } },
{ "type": "Feature", "properties": { "name": "青年路市博物馆" }, "geometry": { "type": "Point", "coordinates": [ 114.258289, 30.611134 ] } },
{ "type": "Feature", "properties": { "name": "汉口火车站" }, "geometry": { "type": "Point", "coordinates": [ 114.254896, 30.616328 ] } },
{ "type": "Feature", "properties": { "name": "11号线江安路站" }, "geometry": { "type": "Point", "coordinates": [ 114.294097, 30.518879 ] } },
{ "type": "Feature", "properties": { "name": "天地新力" }, "geometry": { "type": "Point", "coordinates": [ 114.260168, 30.468879 ] } },
{ "type": "Feature", "properties": { "name": "新城阅璟台" }, "geometry": { "type": "Point", "coordinates": [ 114.255623, 30.46481 ] } },
{ "type": "Feature", "properties": { "name": "美好长江首玺" }, "geometry": { "type": "Point", "coordinates": [ 114.250541, 30.462413 ] } },
{ "type": "Feature", "properties": { "name": "青菱大道建和世家" }, "geometry": { "type": "Point", "coordinates": [ 114.250221, 30.465043 ] } },
{ "type": "Feature", "properties": { "name": "凤凰山停车场" }, "geometry": { "type": "Point", "coordinates": [ 114.314366, 30.554306 ] } },
{ "type": "Feature", "properties": { "name": "中山路凤凰山" }, "geometry": { "type": "Point", "coordinates": [ 114.311797, 30.554852 ] } },
{ "type": "Feature", "properties": { "name": "中山路解放路" }, "geometry": { "type": "Point", "coordinates": [ 114.304545, 30.555247 ] } },
{ "type": "Feature", "properties": { "name": "中山路大堤口" }, "geometry": { "type": "Point", "coordinates": [ 114.300734, 30.555304 ] } },
{ "type": "Feature", "properties": { "name": "临江大道汉阳门" }, "geometry": { "type": "Point", "coordinates": [ 114.293846, 30.548138 ] } },
{ "type": "Feature", "properties": { "name": "临江大道平湖门" }, "geometry": { "type": "Point", "coordinates": [ 114.292753, 30.543779 ] } },
{ "type": "Feature", "properties": { "name": "彭刘杨西路" }, "geometry": { "type": "Point", "coordinates": [ 114.294253, 30.539981 ] } },
{ "type": "Feature", "properties": { "name": "解放路后长街" }, "geometry": { "type": "Point", "coordinates": [ 114.299006, 30.544697 ] } },
{ "type": "Feature", "properties": { "name": "民主路司门口" }, "geometry": { "type": "Point", "coordinates": [ 114.301111, 30.54589 ] } },
{ "type": "Feature", "properties": { "name": "民主路胭脂路" }, "geometry": { "type": "Point", "coordinates": [ 114.308464, 30.544956 ] } },
{ "type": "Feature", "properties": { "name": "民主路武警医院" }, "geometry": { "type": "Point", "coordinates": [ 114.312623, 30.544075 ] } },
{ "type": "Feature", "properties": { "name": "民主路宜家装饰广场" }, "geometry": { "type": "Point", "coordinates": [ 114.315815, 30.543403 ] } },
{ "type": "Feature", "properties": { "name": "民主路小东门" }, "geometry": { "type": "Point", "coordinates": [ 114.322498, 30.543842 ] } },
{ "type": "Feature", "properties": { "name": "民主路何家垅" }, "geometry": { "type": "Point", "coordinates": [ 114.327669, 30.544214 ] } },
{ "type": "Feature", "properties": { "name": "民主路洪山体育馆" }, "geometry": { "type": "Point", "coordinates": [ 114.334426, 30.54471 ] } },
{ "type": "Feature", "properties": { "name": "中北路姚家岭街" }, "geometry": { "type": "Point", "coordinates": [ 114.339388, 30.549794 ] } },
{ "type": "Feature", "properties": { "name": "东湖路省计量院" }, "geometry": { "type": "Point", "coordinates": [ 114.342881, 30.549612 ] } },
{ "type": "Feature", "properties": { "name": "东湖路楚河汉街" }, "geometry": { "type": "Point", "coordinates": [ 114.348776, 30.552921 ] } },
{ "type": "Feature", "properties": { "name": "东湖路中南医院" }, "geometry": { "type": "Point", "coordinates": [ 114.352091, 30.552315 ] } },
{ "type": "Feature", "properties": { "name": "东湖路蔡家嘴" }, "geometry": { "type": "Point", "coordinates": [ 114.360395, 30.55668 ] } },
{ "type": "Feature", "properties": { "name": "东湖路省博物馆" }, "geometry": { "type": "Point", "coordinates": [ 114.362977, 30.561736 ] } },
{ "type": "Feature", "properties": { "name": "黄鹂路东湖" }, "geometry": { "type": "Point", "coordinates": [ 114.371223, 30.562941 ] } },
{ "type": "Feature", "properties": { "name": "楚平路北段" }, "geometry": { "type": "Point", "coordinates": [ 114.380551, 30.501795 ] } },
{ "type": "Feature", "properties": { "name": "楚平路杨家湾" }, "geometry": { "type": "Point", "coordinates": [ 114.381287, 30.503834 ] } },
{ "type": "Feature", "properties": { "name": "雄楚大道BRT楚平路站" }, "geometry": { "type": "Point", "coordinates": [ 114.38245, 30.503922 ] } },
{ "type": "Feature", "properties": { "name": "雄楚大道BRT省荣军医院站" }, "geometry": { "type": "Point", "coordinates": [ 114.373841, 30.505069 ] } },
{ "type": "Feature", "properties": { "name": "雄楚大道BRT卓刀泉南路站" }, "geometry": { "type": "Point", "coordinates": [ 114.365275, 30.508324 ] } },
{ "type": "Feature", "properties": { "name": "雄楚大道BRT元宝山站" }, "geometry": { "type": "Point", "coordinates": [ 114.359965, 30.510117 ] } },
{ "type": "Feature", "properties": { "name": "雄楚大道BRT珞狮路站" }, "geometry": { "type": "Point", "coordinates": [ 114.35319, 30.510299 ] } },
{ "type": "Feature", "properties": { "name": "雄楚大道BRT书城路站" }, "geometry": { "type": "Point", "coordinates": [ 114.340149, 30.51179 ] } },
{ "type": "Feature", "properties": { "name": "雄楚大道BRT石牌岭路站" }, "geometry": { "type": "Point", "coordinates": [ 114.334633, 30.516558 ] } },
{ "type": "Feature", "properties": { "name": "雄楚大道BRT丁字桥路站" }, "geometry": { "type": "Point", "coordinates": [ 114.329597, 30.51805 ] } },
{ "type": "Feature", "properties": { "name": "丁字桥路洪山村" }, "geometry": { "type": "Point", "coordinates": [ 114.329005, 30.520121 ] } },
{ "type": "Feature", "properties": { "name": "丁字桥路涂家岭" }, "geometry": { "type": "Point", "coordinates": [ 114.330543, 30.524468 ] } },
{ "type": "Feature", "properties": { "name": "丁字桥路文安街" }, "geometry": { "type": "Point", "coordinates": [ 114.333316, 30.528721 ] } },
{ "type": "Feature", "properties": { "name": "武珞路傅家坡客运站" }, "geometry": { "type": "Point", "coordinates": [ 114.327928, 30.535968 ] } },
{ "type": "Feature", "properties": { "name": "武珞路大东门" }, "geometry": { "type": "Point", "coordinates": [ 114.32196, 30.538932 ] } },
{ "type": "Feature", "properties": { "name": "中山路小东门" }, "geometry": { "type": "Point", "coordinates": [ 114.318446, 30.545954 ] } },
{ "type": "Feature", "properties": { "name": "民主路宜家装饰广场" }, "geometry": { "type": "Point", "coordinates": [ 114.317699, 30.543539 ] } },
{ "type": "Feature", "properties": { "name": "民主路武警医院" }, "geometry": { "type": "Point", "coordinates": [ 114.31321, 30.543945 ] } },
{ "type": "Feature", "properties": { "name": "民主路胭脂路" }, "geometry": { "type": "Point", "coordinates": [ 114.308654, 30.544974 ] } },
{ "type": "Feature", "properties": { "name": "民主路司门口" }, "geometry": { "type": "Point", "coordinates": [ 114.302544, 30.545786 ] } },
{ "type": "Feature", "properties": { "name": "解放路司门口" }, "geometry": { "type": "Point", "coordinates": [ 114.301072, 30.551415 ] } },
{ "type": "Feature", "properties": { "name": "中山路解放路" }, "geometry": { "type": "Point", "coordinates": [ 114.304268, 30.555164 ] } },
{ "type": "Feature", "properties": { "name": "中山路凤凰山" }, "geometry": { "type": "Point", "coordinates": [ 114.31218, 30.554558 ] } },
{ "type": "Feature", "properties": { "name": "凤凰山停车场" }, "geometry": { "type": "Point", "coordinates": [ 114.314634, 30.554508 ] } },
{ "type": "Feature", "properties": { "name": "国博中心南" }, "geometry": { "type": "Point", "coordinates": [ 114.235797, 30.504431 ] } },
{ "type": "Feature", "properties": { "name": "老关村" }, "geometry": { "type": "Point", "coordinates": [ 114.225922, 30.49291 ] } },
{ "type": "Feature", "properties": { "name": "南太子湖" }, "geometry": { "type": "Point", "coordinates": [ 114.220062, 30.476763 ] } },
{ "type": "Feature", "properties": { "name": "沌口" }, "geometry": { "type": "Point", "coordinates": [ 114.20521, 30.462005 ] } },
{ "type": "Feature", "properties": { "name": "小军山" }, "geometry": { "type": "Point", "coordinates": [ 114.158383, 30.404752 ] } },
{ "type": "Feature", "properties": { "name": "枫林" }, "geometry": { "type": "Point", "coordinates": [ 114.14481, 30.389468 ] } },
{ "type": "Feature", "properties": { "name": "大军山" }, "geometry": { "type": "Point", "coordinates": [ 114.132829, 30.375526 ] } },
{ "type": "Feature", "properties": { "name": "桂子湖" }, "geometry": { "type": "Point", "coordinates": [ 114.093695, 30.358558 ] } },
{ "type": "Feature", "properties": { "name": "马影河" }, "geometry": { "type": "Point", "coordinates": [ 114.068792, 30.341694 ] } },
{ "type": "Feature", "properties": { "name": "协子河" }, "geometry": { "type": "Point", "coordinates": [ 114.059869, 30.332275 ] } },
{ "type": "Feature", "properties": { "name": "湾湖" }, "geometry": { "type": "Point", "coordinates": [ 114.047088, 30.323551 ] } },
{ "type": "Feature", "properties": { "name": "周家河" }, "geometry": { "type": "Point", "coordinates": [ 114.035102, 30.30459 ] } },
{ "type": "Feature", "properties": { "name": "纱帽" }, "geometry": { "type": "Point", "coordinates": [ 114.052174, 30.280258 ] } },
{ "type": "Feature", "properties": { "name": "通航机场" }, "geometry": { "type": "Point", "coordinates": [ 114.062984, 30.269699 ] } },
{ "type": "Feature", "properties": { "name": "新月溪公园" }, "geometry": { "type": "Point", "coordinates": [ 114.502879, 30.47636 ] } },
{ "type": "Feature", "properties": { "name": "光谷五路" }, "geometry": { "type": "Point", "coordinates": [ 114.502876, 30.485101 ] } },
{ "type": "Feature", "properties": { "name": "花山河" }, "geometry": { "type": "Point", "coordinates": [ 114.512443, 30.541243 ] } },
{ "type": "Feature", "properties": { "name": "花山新城" }, "geometry": { "type": "Point", "coordinates": [ 114.504183, 30.554645 ] } },
{ "type": "Feature", "properties": { "name": "鼓架山" }, "geometry": { "type": "Point", "coordinates": [ 114.466404, 30.553403 ] } },
{ "type": "Feature", "properties": { "name": "武东" }, "geometry": { "type": "Point", "coordinates": [ 114.457159, 30.578433 ] } },
{ "type": "Feature", "properties": { "name": "武汉站西广场" }, "geometry": { "type": "Point", "coordinates": [ 114.422911, 30.604844 ] } },
{ "type": "Feature", "properties": { "name": "武东东路船舶园路" }, "geometry": { "type": "Point", "coordinates": [ 114.465438, 30.587739 ] } },
{ "type": "Feature", "properties": { "name": "武东东路星岭路" }, "geometry": { "type": "Point", "coordinates": [ 114.46461, 30.584511 ] } },
{ "type": "Feature", "properties": { "name": "武东路武东三村" }, "geometry": { "type": "Point", "coordinates": [ 114.463594, 30.580482 ] } },
{ "type": "Feature", "properties": { "name": "武东路武东医院" }, "geometry": { "type": "Point", "coordinates": [ 114.461476, 30.577852 ] } },
{ "type": "Feature", "properties": { "name": "武东路地铁武东" }, "geometry": { "type": "Point", "coordinates": [ 114.456084, 30.578643 ] } },
{ "type": "Feature", "properties": { "name": "武东路铁路涵洞" }, "geometry": { "type": "Point", "coordinates": [ 114.450319, 30.578458 ] } },
{ "type": "Feature", "properties": { "name": "武东路青王路口" }, "geometry": { "type": "Point", "coordinates": [ 114.443265, 30.579447 ] } },
{ "type": "Feature", "properties": { "name": "青王路裕锦花苑" }, "geometry": { "type": "Point", "coordinates": [ 114.44146, 30.582804 ] } },
{ "type": "Feature", "properties": { "name": "青王路张家铺" }, "geometry": { "type": "Point", "coordinates": [ 114.440707, 30.586892 ] } },
{ "type": "Feature", "properties": { "name": "青王路龚家岭" }, "geometry": { "type": "Point", "coordinates": [ 114.439822, 30.592331 ] } },
{ "type": "Feature", "properties": { "name": "青王路联合村" }, "geometry": { "type": "Point", "coordinates": [ 114.439513, 30.59809 ] } },
{ "type": "Feature", "properties": { "name": "站前路铁铺岭" }, "geometry": { "type": "Point", "coordinates": [ 114.439247, 30.602175 ] } },
{ "type": "Feature", "properties": { "name": "站前路厂前商场" }, "geometry": { "type": "Point", "coordinates": [ 114.437303, 30.609761 ] } },
{ "type": "Feature", "properties": { "name": "站前路厂前" }, "geometry": { "type": "Point", "coordinates": [ 114.436455, 30.615047 ] } },
{ "type": "Feature", "properties": { "name": "冶金大道地铁武钢" }, "geometry": { "type": "Point", "coordinates": [ 114.436014, 30.619568 ] } },
{ "type": "Feature", "properties": { "name": "冶金大道铁烙山" }, "geometry": { "type": "Point", "coordinates": [ 114.429852, 30.624136 ] } },
{ "type": "Feature", "properties": { "name": "冶金大道傅家村" }, "geometry": { "type": "Point", "coordinates": [ 114.424566, 30.627304 ] } },
{ "type": "Feature", "properties": { "name": "冶金大道楠姆庙" }, "geometry": { "type": "Point", "coordinates": [ 114.419019, 30.628542 ] } },
{ "type": "Feature", "properties": { "name": "冶金大道二轻学校" }, "geometry": { "type": "Point", "coordinates": [ 114.413635, 30.629503 ] } },
{ "type": "Feature", "properties": { "name": "建设十路青馨居" }, "geometry": { "type": "Point", "coordinates": [ 114.412604, 30.624657 ] } },
{ "type": "Feature", "properties": { "name": "友谊大道北洋桥路" }, "geometry": { "type": "Point", "coordinates": [ 114.412634, 30.619454 ] } },
{ "type": "Feature", "properties": { "name": "友谊大道现代花园" }, "geometry": { "type": "Point", "coordinates": [ 114.406545, 30.61947 ] } },
{ "type": "Feature", "properties": { "name": "工业四路黄州街" }, "geometry": { "type": "Point", "coordinates": [ 114.405148, 30.624514 ] } },
{ "type": "Feature", "properties": { "name": "工业四路23街坊" }, "geometry": { "type": "Point", "coordinates": [ 114.405143, 30.628147 ] } },
{ "type": "Feature", "properties": { "name": "沿港路青山少年宫" }, "geometry": { "type": "Point", "coordinates": [ 114.404772, 30.632453 ] } },
{ "type": "Feature", "properties": { "name": "沿港路青山公园" }, "geometry": { "type": "Point", "coordinates": [ 114.403859, 30.638911 ] } },
{ "type": "Feature", "properties": { "name": "建设八路和平大道口" }, "geometry": { "type": "Point", "coordinates": [ 114.402526, 30.64122 ] } },
{ "type": "Feature", "properties": { "name": "建设八路红钢二街" }, "geometry": { "type": "Point", "coordinates": [ 114.40076, 30.643911 ] } },
{ "type": "Feature", "properties": { "name": "环厂北路苏家湾" }, "geometry": { "type": "Point", "coordinates": [ 114.438275, 30.632239 ] } },
{ "type": "Feature", "properties": { "name": "环厂北路丝茅墩" }, "geometry": { "type": "Point", "coordinates": [ 114.426716, 30.636004 ] } },
{ "type": "Feature", "properties": { "name": "和平大道宜居路" }, "geometry": { "type": "Point", "coordinates": [ 114.41954, 30.642686 ] } },
{ "type": "Feature", "properties": { "name": "建设十路和平大道口" }, "geometry": { "type": "Point", "coordinates": [ 114.41151, 30.6424 ] } },
{ "type": "Feature", "properties": { "name": "阳新路公交停车场" }, "geometry": { "type": "Point", "coordinates": [ 114.274835, 30.544345 ] } },
{ "type": "Feature", "properties": { "name": "拦江路南城巷" }, "geometry": { "type": "Point", "coordinates": [ 114.270645, 30.544118 ] } },
{ "type": "Feature", "properties": { "name": "鹦鹉大道地铁钟家村站" }, "geometry": { "type": "Point", "coordinates": [ 114.266215, 30.547565 ] } },
{ "type": "Feature", "properties": { "name": "武胜路江汉桥" }, "geometry": { "type": "Point", "coordinates": [ 114.268446, 30.568624 ] } },
{ "type": "Feature", "properties": { "name": "中山大道地铁汉正街站" }, "geometry": { "type": "Point", "coordinates": [ 114.273979, 30.57094 ] } },
{ "type": "Feature", "properties": { "name": "中山大道民意四路" }, "geometry": { "type": "Point", "coordinates": [ 114.278497, 30.572398 ] } },
{ "type": "Feature", "properties": { "name": "中山大道地铁六渡桥站" }, "geometry": { "type": "Point", "coordinates": [ 114.285654, 30.575607 ] } },
{ "type": "Feature", "properties": { "name": "中山大道地铁江汉路站" }, "geometry": { "type": "Point", "coordinates": [ 114.290661, 30.579154 ] } },
{ "type": "Feature", "properties": { "name": "保华街黄石路" }, "geometry": { "type": "Point", "coordinates": [ 114.293198, 30.584623 ] } },
{ "type": "Feature", "properties": { "name": "中山大道大智路" }, "geometry": { "type": "Point", "coordinates": [ 114.296311, 30.587588 ] } },
{ "type": "Feature", "properties": { "name": "胜利街一元路" }, "geometry": { "type": "Point", "coordinates": [ 114.30266, 30.592446 ] } },
{ "type": "Feature", "properties": { "name": "三阳路中山大道" }, "geometry": { "type": "Point", "coordinates": [ 114.304795, 30.597268 ] } },
{ "type": "Feature", "properties": { "name": "三阳路地铁三阳路站" }, "geometry": { "type": "Point", "coordinates": [ 114.30014, 30.599289 ] } },
{ "type": "Feature", "properties": { "name": "解放大道劳动街" }, "geometry": { "type": "Point", "coordinates": [ 114.300816, 30.60145 ] } },
{ "type": "Feature", "properties": { "name": "解放公园路解放大道口" }, "geometry": { "type": "Point", "coordinates": [ 114.299625, 30.604144 ] } },
{ "type": "Feature", "properties": { "name": "解放公园路解放公园" }, "geometry": { "type": "Point", "coordinates": [ 114.294466, 30.606545 ] } },
{ "type": "Feature", "properties": { "name": "解放公园路惠济路" }, "geometry": { "type": "Point", "coordinates": [ 114.291262, 30.608182 ] } },
{ "type": "Feature", "properties": { "name": "惠济路惠济三路" }, "geometry": { "type": "Point", "coordinates": [ 114.293855, 30.612347 ] } },
{ "type": "Feature", "properties": { "name": "惠济路赵家条" }, "geometry": { "type": "Point", "coordinates": [ 114.297036, 30.614345 ] } },
{ "type": "Feature", "properties": { "name": "江大路赵家条" }, "geometry": { "type": "Point", "coordinates": [ 114.297231, 30.615911 ] } },
{ "type": "Feature", "properties": { "name": "建设大道地铁赵家条站" }, "geometry": { "type": "Point", "coordinates": [ 114.296734, 30.61755 ] } },
{ "type": "Feature", "properties": { "name": "建设大道罗家庄" }, "geometry": { "type": "Point", "coordinates": [ 114.299871, 30.620228 ] } },
{ "type": "Feature", "properties": { "name": "建设大道科技馆" }, "geometry": { "type": "Point", "coordinates": [ 114.302483, 30.622374 ] } },
{ "type": "Feature", "properties": { "name": "建设大道韦家桑园" }, "geometry": { "type": "Point", "coordinates": [ 114.30525, 30.624641 ] } },
{ "type": "Feature", "properties": { "name": "拦江路阳新路" }, "geometry": { "type": "Point", "coordinates": [ 114.275547, 30.545234 ] } },
{ "type": "Feature", "properties": { "name": "阳新路棉花街" }, "geometry": { "type": "Point", "coordinates": [ 114.274712, 30.548269 ] } },
{ "type": "Feature", "properties": { "name": "汉阳大道莲花湖" }, "geometry": { "type": "Point", "coordinates": [ 114.27855, 30.549162 ] } },
{ "type": "Feature", "properties": { "name": "晴川大道莲花湖路" }, "geometry": { "type": "Point", "coordinates": [ 114.281479, 30.551094 ] } },
{ "type": "Feature", "properties": { "name": "晴川大道晴川阁" }, "geometry": { "type": "Point", "coordinates": [ 114.284407, 30.555687 ] } },
{ "type": "Feature", "properties": { "name": "沿河大道集家嘴" }, "geometry": { "type": "Point", "coordinates": [ 114.285672, 30.566791 ] } },
{ "type": "Feature", "properties": { "name": "沿河大道龙王庙" }, "geometry": { "type": "Point", "coordinates": [ 114.291706, 30.566484 ] } },
{ "type": "Feature", "properties": { "name": "沿江大道王家巷" }, "geometry": { "type": "Point", "coordinates": [ 114.294228, 30.569104 ] } },
{ "type": "Feature", "properties": { "name": "沿江大道武汉关" }, "geometry": { "type": "Point", "coordinates": [ 114.297218, 30.574722 ] } },
{ "type": "Feature", "properties": { "name": "沿江大道科技馆" }, "geometry": { "type": "Point", "coordinates": [ 114.298586, 30.577888 ] } },
{ "type": "Feature", "properties": { "name": "沿江大道兰陵路" }, "geometry": { "type": "Point", "coordinates": [ 114.301565, 30.583827 ] } },
{ "type": "Feature", "properties": { "name": "沿江大道粤汉码头" }, "geometry": { "type": "Point", "coordinates": [ 114.304878, 30.590815 ] } },
{ "type": "Feature", "properties": { "name": "胜利街三阳路" }, "geometry": { "type": "Point", "coordinates": [ 114.306289, 30.597918 ] } },
{ "type": "Feature", "properties": { "name": "胜利街六合路" }, "geometry": { "type": "Point", "coordinates": [ 114.307475, 30.600016 ] } },
{ "type": "Feature", "properties": { "name": "胜利街张自忠路" }, "geometry": { "type": "Point", "coordinates": [ 114.309539, 30.603579 ] } },
{ "type": "Feature", "properties": { "name": "中山大道芦沟桥路" }, "geometry": { "type": "Point", "coordinates": [ 114.30895, 30.60673 ] } },
{ "type": "Feature", "properties": { "name": "中山大道长江二桥" }, "geometry": { "type": "Point", "coordinates": [ 114.310836, 30.609797 ] } },
{ "type": "Feature", "properties": { "name": "黄浦大街中部战区总医院分院" }, "geometry": { "type": "Point", "coordinates": [ 114.306415, 30.614666 ] } },
{ "type": "Feature", "properties": { "name": "工农兵路黄浦大街" }, "geometry": { "type": "Point", "coordinates": [ 114.304936, 30.617952 ] } },
{ "type": "Feature", "properties": { "name": "工农兵路空军医院" }, "geometry": { "type": "Point", "coordinates": [ 114.307262, 30.620704 ] } },
{ "type": "Feature", "properties": { "name": "工农兵路支农路" }, "geometry": { "type": "Point", "coordinates": [ 114.309769, 30.623689 ] } },
{ "type": "Feature", "properties": { "name": "工农兵路操场角" }, "geometry": { "type": "Point", "coordinates": [ 114.312018, 30.626357 ] } },
{ "type": "Feature", "properties": { "name": "二七路黑泥湖路" }, "geometry": { "type": "Point", "coordinates": [ 114.310852, 30.628174 ] } },
{ "type": "Feature", "properties": { "name": "二七路建设大道口" }, "geometry": { "type": "Point", "coordinates": [ 114.310052, 30.628399 ] } },
{ "type": "Feature", "properties": { "name": "发展大道二七花园" }, "geometry": { "type": "Point", "coordinates": [ 114.302015, 30.628454 ] } },
{ "type": "Feature", "properties": { "name": "发展大道汉口医院" }, "geometry": { "type": "Point", "coordinates": [ 114.297296, 30.627218 ] } },
{ "type": "Feature", "properties": { "name": "发展大道红旗建材家居" }, "geometry": { "type": "Point", "coordinates": [ 114.29353, 30.626175 ] } },
{ "type": "Feature", "properties": { "name": "宏图路海洋世界" }, "geometry": { "type": "Point", "coordinates": [ 114.275928, 30.664527 ] } },
{ "type": "Feature", "properties": { "name": "临时站" }, "geometry": { "type": "Point", "coordinates": [ 114.2806, 30.664241 ] } },
{ "type": "Feature", "properties": { "name": "塔子湖东路七段村" }, "geometry": { "type": "Point", "coordinates": [ 114.28069, 30.654909 ] } },
{ "type": "Feature", "properties": { "name": "塔子湖东路地铁塔子湖站" }, "geometry": { "type": "Point", "coordinates": [ 114.280399, 30.652973 ] } },
{ "type": "Feature", "properties": { "name": "塔子湖东路复员村" }, "geometry": { "type": "Point", "coordinates": [ 114.279533, 30.647761 ] } },
{ "type": "Feature", "properties": { "name": "塔子湖东路余家墩" }, "geometry": { "type": "Point", "coordinates": [ 114.280174, 30.643675 ] } },
{ "type": "Feature", "properties": { "name": "塔子湖东路地铁中一路站" }, "geometry": { "type": "Point", "coordinates": [ 114.280755, 30.640885 ] } },
{ "type": "Feature", "properties": { "name": "后湖大道地铁中一路站" }, "geometry": { "type": "Point", "coordinates": [ 114.275449, 30.636208 ] } },
{ "type": "Feature", "properties": { "name": "后湖大道牛皮岭" }, "geometry": { "type": "Point", "coordinates": [ 114.272365, 30.635169 ] } },
{ "type": "Feature", "properties": { "name": "青松路后湖大道" }, "geometry": { "type": "Point", "coordinates": [ 114.26885, 30.632144 ] } },
{ "type": "Feature", "properties": { "name": "兴业路华润养老院" }, "geometry": { "type": "Point", "coordinates": [ 114.270629, 30.627747 ] } },
{ "type": "Feature", "properties": { "name": "姑嫂树路石桥" }, "geometry": { "type": "Point", "coordinates": [ 114.266376, 30.625288 ] } },
{ "type": "Feature", "properties": { "name": "唐家墩路地铁唐家墩站" }, "geometry": { "type": "Point", "coordinates": [ 114.270326, 30.619926 ] } },
{ "type": "Feature", "properties": { "name": "发展大道唐家墩路" }, "geometry": { "type": "Point", "coordinates": [ 114.267717, 30.617638 ] } },
{ "type": "Feature", "properties": { "name": "马场二路发展大道" }, "geometry": { "type": "Point", "coordinates": [ 114.266018, 30.619174 ] } },
{ "type": "Feature", "properties": { "name": "马场二路八古墩北路" }, "geometry": { "type": "Point", "coordinates": [ 114.26599, 30.621159 ] } },
{ "type": "Feature", "properties": { "name": "八古墩北路新华路" }, "geometry": { "type": "Point", "coordinates": [ 114.263867, 30.62099 ] } },
{ "type": "Feature", "properties": { "name": "新华路八古墩北路" }, "geometry": { "type": "Point", "coordinates": [ 114.262349, 30.618349 ] } },
{ "type": "Feature", "properties": { "name": "新华路马场路协和肿瘤中心" }, "geometry": { "type": "Point", "coordinates": [ 114.263352, 30.615127 ] } },
{ "type": "Feature", "properties": { "name": "新华路万达" }, "geometry": { "type": "Point", "coordinates": [ 114.265058, 30.611112 ] } },
{ "type": "Feature", "properties": { "name": "马场角小路马场角横路站" }, "geometry": { "type": "Point", "coordinates": [ 114.264526, 30.608076 ] } },
{ "type": "Feature", "properties": { "name": "马场角小路地铁范湖站" }, "geometry": { "type": "Point", "coordinates": [ 114.261837, 30.607765 ] } },
{ "type": "Feature", "properties": { "name": "汉口火车站" }, "geometry": { "type": "Point", "coordinates": [ 114.252218, 30.614774 ] } },
{ "type": "Feature", "properties": { "name": "振兴路武商量贩店" }, "geometry": { "type": "Point", "coordinates": [ 114.250425, 30.608277 ] } },
{ "type": "Feature", "properties": { "name": "振兴路复兴村小区" }, "geometry": { "type": "Point", "coordinates": [ 114.245382, 30.605855 ] } },
{ "type": "Feature", "properties": { "name": "振兴路振兴四路" }, "geometry": { "type": "Point", "coordinates": [ 114.242385, 30.60496 ] } },
{ "type": "Feature", "properties": { "name": "振兴路淮海路" }, "geometry": { "type": "Point", "coordinates": [ 114.237937, 30.603783 ] } },
{ "type": "Feature", "properties": { "name": "淮海路红领巾学校" }, "geometry": { "type": "Point", "coordinates": [ 114.237635, 30.602617 ] } },
{ "type": "Feature", "properties": { "name": "淮海路商务西路" }, "geometry": { "type": "Point", "coordinates": [ 114.243095, 30.600825 ] } },
{ "type": "Feature", "properties": { "name": "淮海路商务东路" }, "geometry": { "type": "Point", "coordinates": [ 114.250764, 30.59929 ] } },
{ "type": "Feature", "properties": { "name": "淮海路云杉路" }, "geometry": { "type": "Point", "coordinates": [ 114.258537, 30.59964 ] } },
{ "type": "Feature", "properties": { "name": "青年路机场河" }, "geometry": { "type": "Point", "coordinates": [ 114.262937, 30.600501 ] } },
{ "type": "Feature", "properties": { "name": "青年路雪松路" }, "geometry": { "type": "Point", "coordinates": [ 114.262866, 30.591545 ] } },
{ "type": "Feature", "properties": { "name": "青年路地铁青年路站" }, "geometry": { "type": "Point", "coordinates": [ 114.264709, 30.585191 ] } },
{ "type": "Feature", "properties": { "name": "顺道街利济北路" }, "geometry": { "type": "Point", "coordinates": [ 114.271209, 30.575669 ] } },
{ "type": "Feature", "properties": { "name": "顺道街游艺路" }, "geometry": { "type": "Point", "coordinates": [ 114.274515, 30.577046 ] } },
{ "type": "Feature", "properties": { "name": "民主一街民意三路" }, "geometry": { "type": "Point", "coordinates": [ 114.278632, 30.576162 ] } },
{ "type": "Feature", "properties": { "name": "民主一街前进一路" }, "geometry": { "type": "Point", "coordinates": [ 114.282344, 30.5777 ] } },
{ "type": "Feature", "properties": { "name": "民主一街前进三路" }, "geometry": { "type": "Point", "coordinates": [ 114.284744, 30.578706 ] } },
{ "type": "Feature", "properties": { "name": "江汉二路江汉路" }, "geometry": { "type": "Point", "coordinates": [ 114.288683, 30.581563 ] } },
{ "type": "Feature", "properties": { "name": "江汉二路南京路" }, "geometry": { "type": "Point", "coordinates": [ 114.290656, 30.5834 ] } },
{ "type": "Feature", "properties": { "name": "胜利街兰陵路" }, "geometry": { "type": "Point", "coordinates": [ 114.29724, 30.586306 ] } },
{ "type": "Feature", "properties": { "name": "胜利街车站路" }, "geometry": { "type": "Point", "coordinates": [ 114.300425, 30.589792 ] } },
{ "type": "Feature", "properties": { "name": "车站路粤汉码头" }, "geometry": { "type": "Point", "coordinates": [ 114.304276, 30.589821 ] } },
{ "type": "Feature", "properties": { "name": "解放大道新华路" }, "geometry": { "type": "Point", "coordinates": [ 114.281736, 30.584637 ] } },
{ "type": "Feature", "properties": { "name": "解放大道中山公园" }, "geometry": { "type": "Point", "coordinates": [ 114.27226, 30.581918 ] } },
{ "type": "Feature", "properties": { "name": "武胜路江汉桥" }, "geometry": { "type": "Point", "coordinates": [ 114.26784, 30.567016 ] } },
{ "type": "Feature", "properties": { "name": "鹦鹉大道琴台公园" }, "geometry": { "type": "Point", "coordinates": [ 114.26579, 30.55569 ] } },
{ "type": "Feature", "properties": { "name": "汉阳大道钟家村" }, "geometry": { "type": "Point", "coordinates": [ 114.263828, 30.549653 ] } },
{ "type": "Feature", "properties": { "name": "汉阳大道汉阳火车站" }, "geometry": { "type": "Point", "coordinates": [ 114.257637, 30.55024 ] } },
{ "type": "Feature", "properties": { "name": "汉阳大道五里新村" }, "geometry": { "type": "Point", "coordinates": [ 114.248524, 30.5516 ] } },
{ "type": "Feature", "properties": { "name": "动物园路墨水湖北路口" }, "geometry": { "type": "Point", "coordinates": [ 114.244119, 30.550052 ] } },
{ "type": "Feature", "properties": { "name": "动物园路武汉动物园" }, "geometry": { "type": "Point", "coordinates": [ 114.246253, 30.545336 ] } },
{ "type": "Feature", "properties": { "name": "马沧湖路李家嘴" }, "geometry": { "type": "Point", "coordinates": [ 114.247804, 30.543576 ] } },
{ "type": "Feature", "properties": { "name": "江堤中路下马湖" }, "geometry": { "type": "Point", "coordinates": [ 114.247339, 30.538446 ] } },
{ "type": "Feature", "properties": { "name": "江堤中路江腾苑" }, "geometry": { "type": "Point", "coordinates": [ 114.247589, 30.53533 ] } },
{ "type": "Feature", "properties": { "name": "江堤中路马路湾" }, "geometry": { "type": "Point", "coordinates": [ 114.246414, 30.531406 ] } },
{ "type": "Feature", "properties": { "name": "江欣苑路墨水湖" }, "geometry": { "type": "Point", "coordinates": [ 114.243205, 30.530818 ] } },
{ "type": "Feature", "properties": { "name": "墨水湖南路连通港路" }, "geometry": { "type": "Point", "coordinates": [ 114.239347, 30.528638 ] } },
{ "type": "Feature", "properties": { "name": "连通港西路墨水湖南路" }, "geometry": { "type": "Point", "coordinates": [ 114.235748, 30.529011 ] } },
{ "type": "Feature", "properties": { "name": "三青路连通港西路" }, "geometry": { "type": "Point", "coordinates": [ 114.233226, 30.527727 ] } },
{ "type": "Feature", "properties": { "name": "三青路凤举路" }, "geometry": { "type": "Point", "coordinates": [ 114.222867, 30.532741 ] } },
{ "type": "Feature", "properties": { "name": "三青路墨水湖小学" }, "geometry": { "type": "Point", "coordinates": [ 114.220451, 30.533702 ] } },
{ "type": "Feature", "properties": { "name": "三青路书台路" }, "geometry": { "type": "Point", "coordinates": [ 114.216444, 30.53296 ] } },
{ "type": "Feature", "properties": { "name": "王家河街二刘湾" }, "geometry": { "type": "Point", "coordinates": [ 114.497834, 30.988958 ] } },
{ "type": "Feature", "properties": { "name": "长堰客运站" }, "geometry": { "type": "Point", "coordinates": [ 114.457451, 31.010004 ] } },
{ "type": "Feature", "properties": { "name": "火塔公路长堰社区路口" }, "geometry": { "type": "Point", "coordinates": [ 114.444709, 31.008655 ] } },
{ "type": "Feature", "properties": { "name": "火塔公路岗上熊" }, "geometry": { "type": "Point", "coordinates": [ 114.440729, 31.003559 ] } },
{ "type": "Feature", "properties": { "name": "火塔公路彭湾" }, "geometry": { "type": "Point", "coordinates": [ 114.439067, 30.998277 ] } },
{ "type": "Feature", "properties": { "name": "火塔公路章华村" }, "geometry": { "type": "Point", "coordinates": [ 114.434488, 30.985564 ] } },
{ "type": "Feature", "properties": { "name": "火塔公路竹林章" }, "geometry": { "type": "Point", "coordinates": [ 114.433034, 30.981593 ] } },
{ "type": "Feature", "properties": { "name": "火塔公路柑子刘" }, "geometry": { "type": "Point", "coordinates": [ 114.430399, 30.974175 ] } },
{ "type": "Feature", "properties": { "name": "王家河街顺河大道街口" }, "geometry": { "type": "Point", "coordinates": [ 114.423672, 30.961046 ] } },
{ "type": "Feature", "properties": { "name": "火塔公路刘桥站" }, "geometry": { "type": "Point", "coordinates": [ 114.4324, 30.956354 ] } },
{ "type": "Feature", "properties": { "name": "火塔公路亚宏墙村" }, "geometry": { "type": "Point", "coordinates": [ 114.434878, 30.953212 ] } },
{ "type": "Feature", "properties": { "name": "火塔公路袁家湾" }, "geometry": { "type": "Point", "coordinates": [ 114.438598, 30.945937 ] } },
{ "type": "Feature", "properties": { "name": "火塔公路草原路口" }, "geometry": { "type": "Point", "coordinates": [ 114.445738, 30.937513 ] } },
{ "type": "Feature", "properties": { "name": "火塔公路彭岗" }, "geometry": { "type": "Point", "coordinates": [ 114.447387, 30.926359 ] } },
{ "type": "Feature", "properties": { "name": "火塔公路高顶村" }, "geometry": { "type": "Point", "coordinates": [ 114.4398, 30.909918 ] } },
{ "type": "Feature", "properties": { "name": "火塔公路李家油榨" }, "geometry": { "type": "Point", "coordinates": [ 114.437548, 30.905621 ] } },
{ "type": "Feature", "properties": { "name": "火塔公路甘露山村" }, "geometry": { "type": "Point", "coordinates": [ 114.432292, 30.899345 ] } },
{ "type": "Feature", "properties": { "name": "火塔公路韩家湾" }, "geometry": { "type": "Point", "coordinates": [ 114.423255, 30.892726 ] } },
{ "type": "Feature", "properties": { "name": "G318阮家大湾" }, "geometry": { "type": "Point", "coordinates": [ 114.40977, 30.883524 ] } },
{ "type": "Feature", "properties": { "name": "黄陂大道黎元洪广场站" }, "geometry": { "type": "Point", "coordinates": [ 114.381753, 30.880924 ] } },
{ "type": "Feature", "properties": { "name": "百秀街中百仓储站" }, "geometry": { "type": "Point", "coordinates": [ 114.373108, 30.881706 ] } },
{ "type": "Feature", "properties": { "name": "百秀街质监局" }, "geometry": { "type": "Point", "coordinates": [ 114.373004, 30.883636 ] } },
{ "type": "Feature", "properties": { "name": "百秀街人民医院站" }, "geometry": { "type": "Point", "coordinates": [ 114.372791, 30.888021 ] } },
{ "type": "Feature", "properties": { "name": "钓台道黄陂客运中心站" }, "geometry": { "type": "Point", "coordinates": [ 114.363852, 30.888808 ] } },
{ "type": "Feature", "properties": { "name": "钓台道黄陂客运中心站" }, "geometry": { "type": "Point", "coordinates": [ 114.363825, 30.887667 ] } },
{ "type": "Feature", "properties": { "name": "钓台大道人民医院" }, "geometry": { "type": "Point", "coordinates": [ 114.370165, 30.888989 ] } },
{ "type": "Feature", "properties": { "name": "王家河街王家田湾" }, "geometry": { "type": "Point", "coordinates": [ 114.391793, 30.931766 ] } },
{ "type": "Feature", "properties": { "name": "王家河街大彭湾" }, "geometry": { "type": "Point", "coordinates": [ 114.388963, 30.940647 ] } },
{ "type": "Feature", "properties": { "name": "王家河街方家湾" }, "geometry": { "type": "Point", "coordinates": [ 114.387934, 30.944557 ] } },
{ "type": "Feature", "properties": { "name": "王家河街熊柏田湾" }, "geometry": { "type": "Point", "coordinates": [ 114.386684, 30.950638 ] } },
{ "type": "Feature", "properties": { "name": "王家河街小陈湾" }, "geometry": { "type": "Point", "coordinates": [ 114.385421, 30.955768 ] } },
{ "type": "Feature", "properties": { "name": "王家河街大峰山湾" }, "geometry": { "type": "Point", "coordinates": [ 114.388628, 30.955773 ] } },
{ "type": "Feature", "properties": { "name": "王家河街大周湾" }, "geometry": { "type": "Point", "coordinates": [ 114.388503, 30.959783 ] } },
{ "type": "Feature", "properties": { "name": "王家河街张袁湾" }, "geometry": { "type": "Point", "coordinates": [ 114.388299, 30.962799 ] } },
{ "type": "Feature", "properties": { "name": "王家河街胡太河湾" }, "geometry": { "type": "Point", "coordinates": [ 114.393819, 30.967765 ] } },
{ "type": "Feature", "properties": { "name": "王家河街黑李湾" }, "geometry": { "type": "Point", "coordinates": [ 114.400942, 30.967938 ] } },
{ "type": "Feature", "properties": { "name": "王家河街下李湾" }, "geometry": { "type": "Point", "coordinates": [ 114.40697, 30.967218 ] } },
{ "type": "Feature", "properties": { "name": "王家河街王家大湾" }, "geometry": { "type": "Point", "coordinates": [ 114.414349, 30.96138 ] } },
{ "type": "Feature", "properties": { "name": "王家河街陈门路" }, "geometry": { "type": "Point", "coordinates": [ 114.42133, 30.960477 ] } },
{ "type": "Feature", "properties": { "name": "王家河街顺河大道街口" }, "geometry": { "type": "Point", "coordinates": [ 114.423685, 30.960885 ] } },
{ "type": "Feature", "properties": { "name": "菱角湖路省新华医院" }, "geometry": { "type": "Point", "coordinates": [ 114.27454, 30.608594 ] } },
{ "type": "Feature", "properties": { "name": "菱角湖路菱角湖公园" }, "geometry": { "type": "Point", "coordinates": [ 114.275047, 30.609484 ] } },
{ "type": "Feature", "properties": { "name": "香港路紫藤花园" }, "geometry": { "type": "Point", "coordinates": [ 114.279541, 30.608307 ] } },
{ "type": "Feature", "properties": { "name": "香江路香港路口" }, "geometry": { "type": "Point", "coordinates": [ 114.28029, 30.606954 ] } },
{ "type": "Feature", "properties": { "name": "长江日报路长江日报" }, "geometry": { "type": "Point", "coordinates": [ 114.278064, 30.603285 ] } },
{ "type": "Feature", "properties": { "name": "长江日报路高家台" }, "geometry": { "type": "Point", "coordinates": [ 114.280258, 30.60173 ] } },
{ "type": "Feature", "properties": { "name": "建设大道地铁取水楼站" }, "geometry": { "type": "Point", "coordinates": [ 114.275738, 30.598155 ] } },
{ "type": "Feature", "properties": { "name": "新华路取水楼" }, "geometry": { "type": "Point", "coordinates": [ 114.272548, 30.594219 ] } },
{ "type": "Feature", "properties": { "name": "新华路协和医院" }, "geometry": { "type": "Point", "coordinates": [ 114.276016, 30.585321 ] } },
{ "type": "Feature", "properties": { "name": "解放大道中山公园" }, "geometry": { "type": "Point", "coordinates": [ 114.272144, 30.581879 ] } },
{ "type": "Feature", "properties": { "name": "解放大道航空路" }, "geometry": { "type": "Point", "coordinates": [ 114.264768, 30.57972 ] } },
{ "type": "Feature", "properties": { "name": "解放大道蓝天宾馆" }, "geometry": { "type": "Point", "coordinates": [ 114.255431, 30.57783 ] } },
{ "type": "Feature", "properties": { "name": "解放大道宝丰路" }, "geometry": { "type": "Point", "coordinates": [ 114.250183, 30.576451 ] } },
{ "type": "Feature", "properties": { "name": "解放大道仁寿路" }, "geometry": { "type": "Point", "coordinates": [ 114.243307, 30.575521 ] } },
{ "type": "Feature", "properties": { "name": "解放大道太平洋" }, "geometry": { "type": "Point", "coordinates": [ 114.232692, 30.576899 ] } },
{ "type": "Feature", "properties": { "name": "解放大道宗关" }, "geometry": { "type": "Point", "coordinates": [ 114.223659, 30.582695 ] } },
{ "type": "Feature", "properties": { "name": "解放大道汉西一路" }, "geometry": { "type": "Point", "coordinates": [ 114.218568, 30.585686 ] } },
{ "type": "Feature", "properties": { "name": "解放大道古田四路" }, "geometry": { "type": "Point", "coordinates": [ 114.211476, 30.58947 ] } },
{ "type": "Feature", "properties": { "name": "解放大道古田三路" }, "geometry": { "type": "Point", "coordinates": [ 114.205247, 30.593229 ] } },
{ "type": "Feature", "properties": { "name": "沿河大道古田三路" }, "geometry": { "type": "Point", "coordinates": [ 114.202066, 30.587982 ] } },
{ "type": "Feature", "properties": { "name": "古田路罗家墩" }, "geometry": { "type": "Point", "coordinates": [ 114.198672, 30.589044 ] } },
{ "type": "Feature", "properties": { "name": "古田路生活村" }, "geometry": { "type": "Point", "coordinates": [ 114.193173, 30.592031 ] } },
{ "type": "Feature", "properties": { "name": "古田路肖家墩" }, "geometry": { "type": "Point", "coordinates": [ 114.191276, 30.593056 ] } },
{ "type": "Feature", "properties": { "name": "古田路古音路" }, "geometry": { "type": "Point", "coordinates": [ 114.187521, 30.595118 ] } },
{ "type": "Feature", "properties": { "name": "古田路陈家墩" }, "geometry": { "type": "Point", "coordinates": [ 114.183594, 30.597287 ] } },
{ "type": "Feature", "properties": { "name": "古田一路生鲜市场" }, "geometry": { "type": "Point", "coordinates": [ 114.182856, 30.601207 ] } },
{ "type": "Feature", "properties": { "name": "工农路古田一路" }, "geometry": { "type": "Point", "coordinates": [ 114.18273, 30.604681 ] } },
{ "type": "Feature", "properties": { "name": "工农路联农路" }, "geometry": { "type": "Point", "coordinates": [ 114.177933, 30.607176 ] } },
{ "type": "Feature", "properties": { "name": "工农路舵落口" }, "geometry": { "type": "Point", "coordinates": [ 114.170273, 30.60983 ] } },
{ "type": "Feature", "properties": { "name": "黄孝公路青松岗" }, "geometry": { "type": "Point", "coordinates": [ 114.192274, 30.986315 ] } },
{ "type": "Feature", "properties": { "name": "祁家湾街下杨湾" }, "geometry": { "type": "Point", "coordinates": [ 114.187075, 30.973624 ] } },
{ "type": "Feature", "properties": { "name": "祁家湾街红强村委会" }, "geometry": { "type": "Point", "coordinates": [ 114.183876, 30.966644 ] } },
{ "type": "Feature", "properties": { "name": "祁家湾街方家岗" }, "geometry": { "type": "Point", "coordinates": [ 114.180903, 30.960113 ] } },
{ "type": "Feature", "properties": { "name": "祁家湾街妙融通养殖场" }, "geometry": { "type": "Point", "coordinates": [ 114.176328, 30.954531 ] } },
{ "type": "Feature", "properties": { "name": "祁家湾街龚家岗路口" }, "geometry": { "type": "Point", "coordinates": [ 114.173893, 30.952326 ] } },
{ "type": "Feature", "properties": { "name": "祁家湾街红旗村委会" }, "geometry": { "type": "Point", "coordinates": [ 114.172322, 30.950447 ] } },
{ "type": "Feature", "properties": { "name": "祁家湾街大刘湾" }, "geometry": { "type": "Point", "coordinates": [ 114.176215, 30.947187 ] } },
{ "type": "Feature", "properties": { "name": "祁家湾街明家岗路口" }, "geometry": { "type": "Point", "coordinates": [ 114.177326, 30.945009 ] } },
{ "type": "Feature", "properties": { "name": "祁家湾街同兴集" }, "geometry": { "type": "Point", "coordinates": [ 114.17888, 30.937127 ] } },
{ "type": "Feature", "properties": { "name": "祁家湾街小陈家田" }, "geometry": { "type": "Point", "coordinates": [ 114.184835, 30.937114 ] } },
{ "type": "Feature", "properties": { "name": "祁家湾街何家岗" }, "geometry": { "type": "Point", "coordinates": [ 114.188095, 30.936024 ] } },
{ "type": "Feature", "properties": { "name": "祁家湾街下杜湾" }, "geometry": { "type": "Point", "coordinates": [ 114.19348, 30.934782 ] } },
{ "type": "Feature", "properties": { "name": "祁家湾街新李湾" }, "geometry": { "type": "Point", "coordinates": [ 114.199322, 30.932965 ] } },
{ "type": "Feature", "properties": { "name": "祁家湾街毕家湾" }, "geometry": { "type": "Point", "coordinates": [ 114.204566, 30.931063 ] } },
{ "type": "Feature", "properties": { "name": "祁家湾街上徐湾" }, "geometry": { "type": "Point", "coordinates": [ 114.20976, 30.930318 ] } },
{ "type": "Feature", "properties": { "name": "祁家湾街卢家砦" }, "geometry": { "type": "Point", "coordinates": [ 114.214457, 30.92967 ] } },
{ "type": "Feature", "properties": { "name": "祁家湾街彭董湾" }, "geometry": { "type": "Point", "coordinates": [ 114.217747, 30.929349 ] } },
{ "type": "Feature", "properties": { "name": "祁家湾街下李湾" }, "geometry": { "type": "Point", "coordinates": [ 114.230451, 30.927066 ] } },
{ "type": "Feature", "properties": { "name": "祁泡公路土庙邮政所" }, "geometry": { "type": "Point", "coordinates": [ 114.236008, 30.934319 ] } },
{ "type": "Feature", "properties": { "name": "祁泡公路机械厂" }, "geometry": { "type": "Point", "coordinates": [ 114.234482, 30.931257 ] } },
{ "type": "Feature", "properties": { "name": "祁泡公路许家店" }, "geometry": { "type": "Point", "coordinates": [ 114.232491, 30.925794 ] } },
{ "type": "Feature", "properties": { "name": "祁泡公路王麻子河" }, "geometry": { "type": "Point", "coordinates": [ 114.231468, 30.922373 ] } },
{ "type": "Feature", "properties": { "name": "祁泡公路大魏湾" }, "geometry": { "type": "Point", "coordinates": [ 114.230461, 30.918737 ] } },
{ "type": "Feature", "properties": { "name": "祁泡公路上卫湾" }, "geometry": { "type": "Point", "coordinates": [ 114.229578, 30.916225 ] } },
{ "type": "Feature", "properties": { "name": "祁泡公路古潭寺" }, "geometry": { "type": "Point", "coordinates": [ 114.230515, 30.912271 ] } },
{ "type": "Feature", "properties": { "name": "祁泡公路汪家砦" }, "geometry": { "type": "Point", "coordinates": [ 114.231609, 30.906516 ] } },
{ "type": "Feature", "properties": { "name": "祁泡公路易家店" }, "geometry": { "type": "Point", "coordinates": [ 114.232244, 30.904727 ] } },
{ "type": "Feature", "properties": { "name": "祁泡公路王棚湾" }, "geometry": { "type": "Point", "coordinates": [ 114.233543, 30.901013 ] } },
{ "type": "Feature", "properties": { "name": "祁泡公路新张湾" }, "geometry": { "type": "Point", "coordinates": [ 114.234167, 30.897205 ] } },
{ "type": "Feature", "properties": { "name": "祁泡公路夏家湾" }, "geometry": { "type": "Point", "coordinates": [ 114.235039, 30.889271 ] } },
{ "type": "Feature", "properties": { "name": "祁家湾寄宿小学" }, "geometry": { "type": "Point", "coordinates": [ 114.235169, 30.884423 ] } },
{ "type": "Feature", "properties": { "name": "祁家湾办事处" }, "geometry": { "type": "Point", "coordinates": [ 114.234609, 30.880872 ] } },
{ "type": "Feature", "properties": { "name": "祁家湾街客运站" }, "geometry": { "type": "Point", "coordinates": [ 114.238441, 30.877943 ] } },
{ "type": "Feature", "properties": { "name": "祁家湾街孙家湾" }, "geometry": { "type": "Point", "coordinates": [ 114.232778, 30.867266 ] } },
{ "type": "Feature", "properties": { "name": "祁家湾客运站" }, "geometry": { "type": "Point", "coordinates": [ 114.238788, 30.878019 ] } },
{ "type": "Feature", "properties": { "name": "祁水公路姚河" }, "geometry": { "type": "Point", "coordinates": [ 114.246011, 30.876615 ] } },
{ "type": "Feature", "properties": { "name": "祁水公路左家湾" }, "geometry": { "type": "Point", "coordinates": [ 114.252027, 30.875898 ] } },
{ "type": "Feature", "properties": { "name": "祁水公路张岗湾" }, "geometry": { "type": "Point", "coordinates": [ 114.257344, 30.877747 ] } },
{ "type": "Feature", "properties": { "name": "祁水公路夏李湾" }, "geometry": { "type": "Point", "coordinates": [ 114.263181, 30.877409 ] } },
{ "type": "Feature", "properties": { "name": "祁水公路郑家冲" }, "geometry": { "type": "Point", "coordinates": [ 114.265638, 30.877261 ] } },
{ "type": "Feature", "properties": { "name": "祁水公路宋店中学" }, "geometry": { "type": "Point", "coordinates": [ 114.268374, 30.876999 ] } },
{ "type": "Feature", "properties": { "name": "祁水公路下胡湾" }, "geometry": { "type": "Point", "coordinates": [ 114.273542, 30.876372 ] } },
{ "type": "Feature", "properties": { "name": "祁水公路上胡湾" }, "geometry": { "type": "Point", "coordinates": [ 114.278642, 30.875972 ] } },
{ "type": "Feature", "properties": { "name": "祁水公路余杨湾" }, "geometry": { "type": "Point", "coordinates": [ 114.285916, 30.875803 ] } },
{ "type": "Feature", "properties": { "name": "祁水公路毛店西" }, "geometry": { "type": "Point", "coordinates": [ 114.28954, 30.87579 ] } },
{ "type": "Feature", "properties": { "name": "祁水公路毛店东" }, "geometry": { "type": "Point", "coordinates": [ 114.29349, 30.877209 ] } },
{ "type": "Feature", "properties": { "name": "祁水公路张李湾" }, "geometry": { "type": "Point", "coordinates": [ 114.30168, 30.878103 ] } },
{ "type": "Feature", "properties": { "name": "祁水公路桂刘湾" }, "geometry": { "type": "Point", "coordinates": [ 114.305582, 30.878303 ] } },
{ "type": "Feature", "properties": { "name": "祁水公路彭家楼" }, "geometry": { "type": "Point", "coordinates": [ 114.312088, 30.878598 ] } },
{ "type": "Feature", "properties": { "name": "祁水公路冷水店" }, "geometry": { "type": "Point", "coordinates": [ 114.31964, 30.878116 ] } },
{ "type": "Feature", "properties": { "name": "祁水公路彭家寨" }, "geometry": { "type": "Point", "coordinates": [ 114.323659, 30.877839 ] } },
{ "type": "Feature", "properties": { "name": "祁水公路大郭湾" }, "geometry": { "type": "Point", "coordinates": [ 114.33102, 30.871146 ] } },
{ "type": "Feature", "properties": { "name": "西寺大道罗上湾" }, "geometry": { "type": "Point", "coordinates": [ 114.328108, 30.867088 ] } },
{ "type": "Feature", "properties": { "name": "西寺大道辛店" }, "geometry": { "type": "Point", "coordinates": [ 114.32467, 30.863741 ] } },
{ "type": "Feature", "properties": { "name": "川龙大道余彭湾" }, "geometry": { "type": "Point", "coordinates": [ 114.318698, 30.857956 ] } },
{ "type": "Feature", "properties": { "name": "川龙大道上付湾" }, "geometry": { "type": "Point", "coordinates": [ 114.315148, 30.850621 ] } },
{ "type": "Feature", "properties": { "name": "川龙大道下付湾" }, "geometry": { "type": "Point", "coordinates": [ 114.312999, 30.845317 ] } },
{ "type": "Feature", "properties": { "name": "川龙大道弓长湾" }, "geometry": { "type": "Point", "coordinates": [ 114.310126, 30.838559 ] } },
{ "type": "Feature", "properties": { "name": "川龙大道亚太东升驾校" }, "geometry": { "type": "Point", "coordinates": [ 114.310339, 30.828698 ] } },
{ "type": "Feature", "properties": { "name": "川龙大道三三零" }, "geometry": { "type": "Point", "coordinates": [ 114.310616, 30.822661 ] } },
{ "type": "Feature", "properties": { "name": "川龙大道编组站" }, "geometry": { "type": "Point", "coordinates": [ 114.305239, 30.815282 ] } },
{ "type": "Feature", "properties": { "name": "川龙大道杨严湾" }, "geometry": { "type": "Point", "coordinates": [ 114.299735, 30.812409 ] } },
{ "type": "Feature", "properties": { "name": "川龙大道冶金站" }, "geometry": { "type": "Point", "coordinates": [ 114.291063, 30.806046 ] } },
{ "type": "Feature", "properties": { "name": "川龙大道中兴街" }, "geometry": { "type": "Point", "coordinates": [ 114.289314, 30.8024 ] } },
{ "type": "Feature", "properties": { "name": "川龙大道陈榨湾" }, "geometry": { "type": "Point", "coordinates": [ 114.286519, 30.797795 ] } },
{ "type": "Feature", "properties": { "name": "川龙大道晏北湾" }, "geometry": { "type": "Point", "coordinates": [ 114.283676, 30.79408 ] } },
{ "type": "Feature", "properties": { "name": "川龙大道幸福村" }, "geometry": { "type": "Point", "coordinates": [ 114.27875, 30.785877 ] } },
{ "type": "Feature", "properties": { "name": "川龙大道周大福产业园" }, "geometry": { "type": "Point", "coordinates": [ 114.27697, 30.781181 ] } },
{ "type": "Feature", "properties": { "name": "川龙大道雷张湾" }, "geometry": { "type": "Point", "coordinates": [ 114.275752, 30.777975 ] } },
{ "type": "Feature", "properties": { "name": "川龙大道邓家楼子" }, "geometry": { "type": "Point", "coordinates": [ 114.273689, 30.772505 ] } },
{ "type": "Feature", "properties": { "name": "川龙大道张家咀" }, "geometry": { "type": "Point", "coordinates": [ 114.271896, 30.768238 ] } },
{ "type": "Feature", "properties": { "name": "祁家湾街汪畈村" }, "geometry": { "type": "Point", "coordinates": [ 114.165174, 30.891272 ] } },
{ "type": "Feature", "properties": { "name": "孝天公路小李湾" }, "geometry": { "type": "Point", "coordinates": [ 114.173724, 30.891215 ] } },
{ "type": "Feature", "properties": { "name": "孝天公路廖岗" }, "geometry": { "type": "Point", "coordinates": [ 114.178216, 30.892114 ] } },
{ "type": "Feature", "properties": { "name": "孝天公路榨古桥" }, "geometry": { "type": "Point", "coordinates": [ 114.187795, 30.891589 ] } },
{ "type": "Feature", "properties": { "name": "孝天公路康都村" }, "geometry": { "type": "Point", "coordinates": [ 114.196823, 30.890588 ] } },
{ "type": "Feature", "properties": { "name": "孝天公路付谈家湾" }, "geometry": { "type": "Point", "coordinates": [ 114.203002, 30.886014 ] } },
{ "type": "Feature", "properties": { "name": "孝天公路杨集村" }, "geometry": { "type": "Point", "coordinates": [ 114.210443, 30.88043 ] } },
{ "type": "Feature", "properties": { "name": "孝天公路大杜村" }, "geometry": { "type": "Point", "coordinates": [ 114.215234, 30.877361 ] } },
{ "type": "Feature", "properties": { "name": "孝天公路车站村" }, "geometry": { "type": "Point", "coordinates": [ 114.220989, 30.873698 ] } },
{ "type": "Feature", "properties": { "name": "临时站" }, "geometry": { "type": "Point", "coordinates": [ 114.228357, 30.869021 ] } },
{ "type": "Feature", "properties": { "name": "孝天公路加油站" }, "geometry": { "type": "Point", "coordinates": [ 114.232784, 30.866223 ] } },
{ "type": "Feature", "properties": { "name": "孝天公路谦森岛庄园" }, "geometry": { "type": "Point", "coordinates": [ 114.236135, 30.856645 ] } },
{ "type": "Feature", "properties": { "name": "孝天公路张家店" }, "geometry": { "type": "Point", "coordinates": [ 114.239327, 30.844942 ] } },
{ "type": "Feature", "properties": { "name": "孝天公路程力工业园" }, "geometry": { "type": "Point", "coordinates": [ 114.23309, 30.838915 ] } },
{ "type": "Feature", "properties": { "name": "孝天公路赵岗村" }, "geometry": { "type": "Point", "coordinates": [ 114.228683, 30.831815 ] } },
{ "type": "Feature", "properties": { "name": "孝天公路岱墙村" }, "geometry": { "type": "Point", "coordinates": [ 114.224236, 30.821897 ] } },
{ "type": "Feature", "properties": { "name": "孝天公路河露街口" }, "geometry": { "type": "Point", "coordinates": [ 114.222762, 30.807292 ] } },
{ "type": "Feature", "properties": { "name": "孝天公路院子湾" }, "geometry": { "type": "Point", "coordinates": [ 114.229516, 30.800773 ] } },
{ "type": "Feature", "properties": { "name": "横天公路中杨湾" }, "geometry": { "type": "Point", "coordinates": [ 114.239332, 30.798424 ] } },
{ "type": "Feature", "properties": { "name": "横天公路新建村" }, "geometry": { "type": "Point", "coordinates": [ 114.257296, 30.797806 ] } },
{ "type": "Feature", "properties": { "name": "临时站" }, "geometry": { "type": "Point", "coordinates": [ 114.264273, 30.795776 ] } },
{ "type": "Feature", "properties": { "name": "横天公路临空园" }, "geometry": { "type": "Point", "coordinates": [ 114.270724, 30.794395 ] } },
{ "type": "Feature", "properties": { "name": "横天公路孙刘湾" }, "geometry": { "type": "Point", "coordinates": [ 114.282296, 30.793077 ] } },
{ "type": "Feature", "properties": { "name": "川龙大道陈塘湾" }, "geometry": { "type": "Point", "coordinates": [ 114.270519, 30.765312 ] } },
{ "type": "Feature", "properties": { "name": "川龙大道桥咀" }, "geometry": { "type": "Point", "coordinates": [ 114.264198, 30.755812 ] } },
{ "type": "Feature", "properties": { "name": "川龙大道未来海岸" }, "geometry": { "type": "Point", "coordinates": [ 114.260287, 30.749332 ] } },
{ "type": "Feature", "properties": { "name": "腾龙大道盘龙大道口(东)" }, "geometry": { "type": "Point", "coordinates": [ 114.261637, 30.727555 ] } },
{ "type": "Feature", "properties": { "name": "腾龙大道大沙咀" }, "geometry": { "type": "Point", "coordinates": [ 114.26978, 30.725258 ] } },
{ "type": "Feature", "properties": { "name": "腾龙大道乘龙路" }, "geometry": { "type": "Point", "coordinates": [ 114.27388, 30.722819 ] } },
{ "type": "Feature", "properties": { "name": "腾龙大道下集村冯家榜" }, "geometry": { "type": "Point", "coordinates": [ 114.278994, 30.719139 ] } },
{ "type": "Feature", "properties": { "name": "腾龙大道盘龙四路" }, "geometry": { "type": "Point", "coordinates": [ 114.282293, 30.717324 ] } },
{ "type": "Feature", "properties": { "name": "腾龙大道桑树咀" }, "geometry": { "type": "Point", "coordinates": [ 114.28783, 30.714909 ] } },
{ "type": "Feature", "properties": { "name": "腾龙大道市一医院盘龙城院区" }, "geometry": { "type": "Point", "coordinates": [ 114.296309, 30.712412 ] } },
{ "type": "Feature", "properties": { "name": "腾龙大道盘龙一路" }, "geometry": { "type": "Point", "coordinates": [ 114.301973, 30.711753 ] } },
{ "type": "Feature", "properties": { "name": "汉口北大道地铁汉口北站" }, "geometry": { "type": "Point", "coordinates": [ 114.328607, 30.712386 ] } },
{ "type": "Feature", "properties": { "name": "鲁磨路南望山" }, "geometry": { "type": "Point", "coordinates": [ 114.404488, 30.524008 ] } },
{ "type": "Feature", "properties": { "name": "鲁磨路地质大学" }, "geometry": { "type": "Point", "coordinates": [ 114.401385, 30.519501 ] } },
{ "type": "Feature", "properties": { "name": "鲁磨路中航181" }, "geometry": { "type": "Point", "coordinates": [ 114.400671, 30.51591 ] } },
{ "type": "Feature", "properties": { "name": "鲁磨路曹家湾" }, "geometry": { "type": "Point", "coordinates": [ 114.4, 30.512582 ] } },
{ "type": "Feature", "properties": { "name": "鲁磨路光谷广场" }, "geometry": { "type": "Point", "coordinates": [ 114.399264, 30.508609 ] } },
{ "type": "Feature", "properties": { "name": "珞喻路鲁巷" }, "geometry": { "type": "Point", "coordinates": [ 114.396252, 30.507539 ] } },
{ "type": "Feature", "properties": { "name": "珞喻路吴家湾" }, "geometry": { "type": "Point", "coordinates": [ 114.390473, 30.512118 ] } },
{ "type": "Feature", "properties": { "name": "珞喻路科技会展中心" }, "geometry": { "type": "Point", "coordinates": [ 114.383862, 30.515974 ] } },
{ "type": "Feature", "properties": { "name": "珞喻路马家庄" }, "geometry": { "type": "Point", "coordinates": [ 114.378405, 30.517248 ] } },
{ "type": "Feature", "properties": { "name": "珞喻路卓刀泉中学" }, "geometry": { "type": "Point", "coordinates": [ 114.372828, 30.518605 ] } },
{ "type": "Feature", "properties": { "name": "珞喻路广埠屯" }, "geometry": { "type": "Point", "coordinates": [ 114.3599, 30.524885 ] } },
{ "type": "Feature", "properties": { "name": "武珞路街道口" }, "geometry": { "type": "Point", "coordinates": [ 114.34642, 30.52882 ] } },
{ "type": "Feature", "properties": { "name": "武珞路地铁宝通寺站" }, "geometry": { "type": "Point", "coordinates": [ 114.339745, 30.531019 ] } },
{ "type": "Feature", "properties": { "name": "丁字桥路武珞路口" }, "geometry": { "type": "Point", "coordinates": [ 114.333946, 30.531148 ] } },
{ "type": "Feature", "properties": { "name": "丁字桥路文安街" }, "geometry": { "type": "Point", "coordinates": [ 114.333282, 30.528936 ] } },
{ "type": "Feature", "properties": { "name": "丁字桥路涂家岭" }, "geometry": { "type": "Point", "coordinates": [ 114.330493, 30.524525 ] } },
{ "type": "Feature", "properties": { "name": "丁字桥路洪山村" }, "geometry": { "type": "Point", "coordinates": [ 114.328835, 30.519975 ] } },
{ "type": "Feature", "properties": { "name": "丁字桥南路江南庭院" }, "geometry": { "type": "Point", "coordinates": [ 114.325651, 30.510477 ] } },
{ "type": "Feature", "properties": { "name": "丁字桥南路北港村" }, "geometry": { "type": "Point", "coordinates": [ 114.325395, 30.505848 ] } },
{ "type": "Feature", "properties": { "name": "建安街丁字桥南路" }, "geometry": { "type": "Point", "coordinates": [ 114.323429, 30.504293 ] } },
{ "type": "Feature", "properties": { "name": "建安街平安路" }, "geometry": { "type": "Point", "coordinates": [ 114.319117, 30.50431 ] } },
{ "type": "Feature", "properties": { "name": "建安街恒安路口" }, "geometry": { "type": "Point", "coordinates": [ 114.316613, 30.504307 ] } },
{ "type": "Feature", "properties": { "name": "恒安路地铁建安街站" }, "geometry": { "type": "Point", "coordinates": [ 114.313694, 30.503429 ] } },
{ "type": "Feature", "properties": { "name": "南李路武梁路" }, "geometry": { "type": "Point", "coordinates": [ 114.314688, 30.498108 ] } },
{ "type": "Feature", "properties": { "name": "南湖公交场站" }, "geometry": { "type": "Point", "coordinates": [ 114.313081, 30.497118 ] } },
{ "type": "Feature", "properties": { "name": "台北路天门墩" }, "geometry": { "type": "Point", "coordinates": [ 114.276665, 30.602648 ] } },
{ "type": "Feature", "properties": { "name": "台北路鄂城墩" }, "geometry": { "type": "Point", "coordinates": [ 114.278798, 30.598383 ] } },
{ "type": "Feature", "properties": { "name": "台北路鲩子湖" }, "geometry": { "type": "Point", "coordinates": [ 114.282327, 30.595276 ] } },
{ "type": "Feature", "properties": { "name": "台北路台北一路" }, "geometry": { "type": "Point", "coordinates": [ 114.284909, 30.593028 ] } },
{ "type": "Feature", "properties": { "name": "台东路熊家台" }, "geometry": { "type": "Point", "coordinates": [ 114.288286, 30.593592 ] } },
{ "type": "Feature", "properties": { "name": "西马路亚单角" }, "geometry": { "type": "Point", "coordinates": [ 114.29007, 30.595618 ] } },
{ "type": "Feature", "properties": { "name": "解放大道球场街" }, "geometry": { "type": "Point", "coordinates": [ 114.295706, 30.597137 ] } },
{ "type": "Feature", "properties": { "name": "解放大道永清街" }, "geometry": { "type": "Point", "coordinates": [ 114.304336, 30.60614 ] } },
{ "type": "Feature", "properties": { "name": "中山大道长江二桥" }, "geometry": { "type": "Point", "coordinates": [ 114.310716, 30.609594 ] } },
{ "type": "Feature", "properties": { "name": "黄浦大街分金街" }, "geometry": { "type": "Point", "coordinates": [ 114.313279, 30.61022 ] } },
{ "type": "Feature", "properties": { "name": "沿江大道黄浦大街" }, "geometry": { "type": "Point", "coordinates": [ 114.316525, 30.611393 ] } },
{ "type": "Feature", "properties": { "name": "沿江大道永泰路" }, "geometry": { "type": "Point", "coordinates": [ 114.318342, 30.613807 ] } },
{ "type": "Feature", "properties": { "name": "沿江大道韦桑路" }, "geometry": { "type": "Point", "coordinates": [ 114.321793, 30.618688 ] } },
{ "type": "Feature", "properties": { "name": "沿江大道江滩足球场" }, "geometry": { "type": "Point", "coordinates": [ 114.324944, 30.622995 ] } },
{ "type": "Feature", "properties": { "name": "蔡家榨街客运站" }, "geometry": { "type": "Point", "coordinates": [ 114.538945, 30.923403 ] } },
{ "type": "Feature", "properties": { "name": "熊许公路六银庙" }, "geometry": { "type": "Point", "coordinates": [ 114.538485, 30.946858 ] } },
{ "type": "Feature", "properties": { "name": "蔡家榨街聂冲湾" }, "geometry": { "type": "Point", "coordinates": [ 114.548407, 30.942691 ] } },
{ "type": "Feature", "properties": { "name": "蔡家榨街阮馆" }, "geometry": { "type": "Point", "coordinates": [ 114.553464, 30.941419 ] } },
{ "type": "Feature", "properties": { "name": "蔡家榨街周梅家田" }, "geometry": { "type": "Point", "coordinates": [ 114.559219, 30.94322 ] } },
{ "type": "Feature", "properties": { "name": "蔡家榨街张家院子" }, "geometry": { "type": "Point", "coordinates": [ 114.564944, 30.942895 ] } },
{ "type": "Feature", "properties": { "name": "蔡家榨街杨馆" }, "geometry": { "type": "Point", "coordinates": [ 114.568016, 30.946137 ] } },
{ "type": "Feature", "properties": { "name": "蔡家榨街会龙山村委会" }, "geometry": { "type": "Point", "coordinates": [ 114.567231, 30.95776 ] } },
{ "type": "Feature", "properties": { "name": "蔡家榨街博士湾" }, "geometry": { "type": "Point", "coordinates": [ 114.57518, 30.951363 ] } },
{ "type": "Feature", "properties": { "name": "蔡家榨街会龙山" }, "geometry": { "type": "Point", "coordinates": [ 114.575095, 30.954201 ] } },
{ "type": "Feature", "properties": { "name": "蔡家榨街稻场湾" }, "geometry": { "type": "Point", "coordinates": [ 114.576549, 30.960664 ] } },
{ "type": "Feature", "properties": { "name": "蔡家榨街栗梓园" }, "geometry": { "type": "Point", "coordinates": [ 114.579399, 30.968958 ] } },
{ "type": "Feature", "properties": { "name": "临江大道平湖门" }, "geometry": { "type": "Point", "coordinates": [ 114.292972, 30.544514 ] } },
{ "type": "Feature", "properties": { "name": "临江大道汉阳门" }, "geometry": { "type": "Point", "coordinates": [ 114.293996, 30.54828 ] } },
{ "type": "Feature", "properties": { "name": "中华路都府堤路" }, "geometry": { "type": "Point", "coordinates": [ 114.297938, 30.549676 ] } },
{ "type": "Feature", "properties": { "name": "中华路司门口" }, "geometry": { "type": "Point", "coordinates": [ 114.301755, 30.548816 ] } },
{ "type": "Feature", "properties": { "name": "粮道街文华中学" }, "geometry": { "type": "Point", "coordinates": [ 114.304009, 30.548337 ] } },
{ "type": "Feature", "properties": { "name": "粮道街胭脂路" }, "geometry": { "type": "Point", "coordinates": [ 114.309108, 30.547614 ] } },
{ "type": "Feature", "properties": { "name": "粮道街怡博苑" }, "geometry": { "type": "Point", "coordinates": [ 114.315313, 30.546687 ] } },
{ "type": "Feature", "properties": { "name": "中山路小东门" }, "geometry": { "type": "Point", "coordinates": [ 114.318193, 30.545706 ] } },
{ "type": "Feature", "properties": { "name": "中山路大东门" }, "geometry": { "type": "Point", "coordinates": [ 114.318, 30.538277 ] } },
{ "type": "Feature", "properties": { "name": "武昌火车站综合体" }, "geometry": { "type": "Point", "coordinates": [ 114.317609, 30.530883 ] } },
{ "type": "Feature", "properties": { "name": "罗汉寺街致富街" }, "geometry": { "type": "Point", "coordinates": [ 114.307593, 30.952783 ] } },
{ "type": "Feature", "properties": { "name": "罗汉街" }, "geometry": { "type": "Point", "coordinates": [ 114.30704, 30.951858 ] } },
{ "type": "Feature", "properties": { "name": "龙兴街河边江" }, "geometry": { "type": "Point", "coordinates": [ 114.305516, 30.949175 ] } },
{ "type": "Feature", "properties": { "name": "横花线沈家店" }, "geometry": { "type": "Point", "coordinates": [ 114.302543, 30.93935 ] } },
{ "type": "Feature", "properties": { "name": "横花线小杨湾" }, "geometry": { "type": "Point", "coordinates": [ 114.299219, 30.936128 ] } },
{ "type": "Feature", "properties": { "name": "横花线周家岗" }, "geometry": { "type": "Point", "coordinates": [ 114.296458, 30.932791 ] } },
{ "type": "Feature", "properties": { "name": "横花线周家砦湾" }, "geometry": { "type": "Point", "coordinates": [ 114.295321, 30.929544 ] } },
{ "type": "Feature", "properties": { "name": "横花线万家店" }, "geometry": { "type": "Point", "coordinates": [ 114.293829, 30.926372 ] } },
{ "type": "Feature", "properties": { "name": "横花线花石" }, "geometry": { "type": "Point", "coordinates": [ 114.292396, 30.922795 ] } },
{ "type": "Feature", "properties": { "name": "黄孝公路金寨" }, "geometry": { "type": "Point", "coordinates": [ 114.299193, 30.917357 ] } },
{ "type": "Feature", "properties": { "name": "黄孝公路潘陈湾" }, "geometry": { "type": "Point", "coordinates": [ 114.305352, 30.913615 ] } },
{ "type": "Feature", "properties": { "name": "黄孝公路涂店砖厂站" }, "geometry": { "type": "Point", "coordinates": [ 114.309983, 30.910807 ] } },
{ "type": "Feature", "properties": { "name": "黄孝公路涂店" }, "geometry": { "type": "Point", "coordinates": [ 114.32296, 30.903542 ] } },
{ "type": "Feature", "properties": { "name": "黄孝公路冯家院" }, "geometry": { "type": "Point", "coordinates": [ 114.331523, 30.898746 ] } },
{ "type": "Feature", "properties": { "name": "黄孝公路付店" }, "geometry": { "type": "Point", "coordinates": [ 114.335508, 30.89645 ] } },
{ "type": "Feature", "properties": { "name": "黄孝公路青仔铺" }, "geometry": { "type": "Point", "coordinates": [ 114.345768, 30.890733 ] } },
{ "type": "Feature", "properties": { "name": "双凤大道地铁百泰路站" }, "geometry": { "type": "Point", "coordinates": [ 114.3589, 30.883543 ] } },
{ "type": "Feature", "properties": { "name": "钓台道黄陂客运中心" }, "geometry": { "type": "Point", "coordinates": [ 114.363728, 30.888529 ] } },
{ "type": "Feature", "properties": { "name": "金山大道地铁金银湖公园站" }, "geometry": { "type": "Point", "coordinates": [ 114.179076, 30.636311 ] } },
{ "type": "Feature", "properties": { "name": "环湖路金山大道口" }, "geometry": { "type": "Point", "coordinates": [ 114.179512, 30.638369 ] } },
{ "type": "Feature", "properties": { "name": "环湖路新桥四路" }, "geometry": { "type": "Point", "coordinates": [ 114.175317, 30.643398 ] } },
{ "type": "Feature", "properties": { "name": "环湖路柏景湾" }, "geometry": { "type": "Point", "coordinates": [ 114.170156, 30.649444 ] } },
{ "type": "Feature", "properties": { "name": "环湖路新桥路" }, "geometry": { "type": "Point", "coordinates": [ 114.169714, 30.656065 ] } },
{ "type": "Feature", "properties": { "name": "环湖路万科西半岛" }, "geometry": { "type": "Point", "coordinates": [ 114.17111, 30.658253 ] } },
{ "type": "Feature", "properties": { "name": "柏环二路环湖路" }, "geometry": { "type": "Point", "coordinates": [ 114.171845, 30.660616 ] } },
{ "type": "Feature", "properties": { "name": "环湖中路柏环一路" }, "geometry": { "type": "Point", "coordinates": [ 114.168368, 30.66211 ] } },
{ "type": "Feature", "properties": { "name": "环湖中路远大医药" }, "geometry": { "type": "Point", "coordinates": [ 114.169768, 30.667649 ] } },
{ "type": "Feature", "properties": { "name": "龙阳湖北路龙阳湖半岛公园" }, "geometry": { "type": "Point", "coordinates": [ 114.187386, 30.556969 ] } },
{ "type": "Feature", "properties": { "name": "龙阳湖北路仙女山路" }, "geometry": { "type": "Point", "coordinates": [ 114.19348, 30.558799 ] } },
{ "type": "Feature", "properties": { "name": "龙阳湖北路玉龙路" }, "geometry": { "type": "Point", "coordinates": [ 114.199248, 30.558826 ] } },
{ "type": "Feature", "properties": { "name": "玉龙路杨家湾路" }, "geometry": { "type": "Point", "coordinates": [ 114.201229, 30.562771 ] } },
{ "type": "Feature", "properties": { "name": "汉阳大道好美家" }, "geometry": { "type": "Point", "coordinates": [ 114.206814, 30.563312 ] } },
{ "type": "Feature", "properties": { "name": "玫瑰街龙阳大道口" }, "geometry": { "type": "Point", "coordinates": [ 114.212826, 30.565486 ] } },
{ "type": "Feature", "properties": { "name": "玫瑰街知音东村" }, "geometry": { "type": "Point", "coordinates": [ 114.2149, 30.565595 ] } },
{ "type": "Feature", "properties": { "name": "玫瑰街昌家湾" }, "geometry": { "type": "Point", "coordinates": [ 114.219123, 30.565178 ] } },
{ "type": "Feature", "properties": { "name": "玫瑰街百灵路" }, "geometry": { "type": "Point", "coordinates": [ 114.224683, 30.563763 ] } },
{ "type": "Feature", "properties": { "name": "玫瑰街罗七路口" }, "geometry": { "type": "Point", "coordinates": [ 114.228134, 30.562874 ] } },
{ "type": "Feature", "properties": { "name": "琴台大道罗七路" }, "geometry": { "type": "Point", "coordinates": [ 114.230986, 30.565252 ] } },
{ "type": "Feature", "properties": { "name": "琴台大道中央公园" }, "geometry": { "type": "Point", "coordinates": [ 114.238095, 30.563933 ] } },
{ "type": "Feature", "properties": { "name": "华园路知音大道口" }, "geometry": { "type": "Point", "coordinates": [ 114.241589, 30.568113 ] } },
{ "type": "Feature", "properties": { "name": "知音大道月琴路" }, "geometry": { "type": "Point", "coordinates": [ 114.24595, 30.566312 ] } },
{ "type": "Feature", "properties": { "name": "知音大道龙灯堤" }, "geometry": { "type": "Point", "coordinates": [ 114.247352, 30.564718 ] } },
{ "type": "Feature", "properties": { "name": "硚口路仁寿路" }, "geometry": { "type": "Point", "coordinates": [ 114.251759, 30.573889 ] } },
{ "type": "Feature", "properties": { "name": "解放大道同济医院" }, "geometry": { "type": "Point", "coordinates": [ 114.259403, 30.577566 ] } },
{ "type": "Feature", "properties": { "name": "解放大道航空路" }, "geometry": { "type": "Point", "coordinates": [ 114.264843, 30.579385 ] } },
{ "type": "Feature", "properties": { "name": "水果湖路水果湖" }, "geometry": { "type": "Point", "coordinates": [ 114.342972, 30.5471 ] } },
{ "type": "Feature", "properties": { "name": "白鹭街东湖路站" }, "geometry": { "type": "Point", "coordinates": [ 114.345472, 30.55202 ] } },
{ "type": "Feature", "properties": { "name": "中北路姚家岭街" }, "geometry": { "type": "Point", "coordinates": [ 114.339192, 30.549969 ] } },
{ "type": "Feature", "properties": { "name": "洪山广场地铁站" }, "geometry": { "type": "Point", "coordinates": [ 114.335815, 30.546047 ] } },
{ "type": "Feature", "properties": { "name": "中南路中南二路" }, "geometry": { "type": "Point", "coordinates": [ 114.334812, 30.541212 ] } },
{ "type": "Feature", "properties": { "name": "中南路地铁中南路站" }, "geometry": { "type": "Point", "coordinates": [ 114.332563, 30.537019 ] } },
{ "type": "Feature", "properties": { "name": "武珞路大东门" }, "geometry": { "type": "Point", "coordinates": [ 114.321719, 30.538902 ] } },
{ "type": "Feature", "properties": { "name": "武珞路阅马场" }, "geometry": { "type": "Point", "coordinates": [ 114.308785, 30.540629 ] } },
{ "type": "Feature", "properties": { "name": "中山大道地铁汉正街站" }, "geometry": { "type": "Point", "coordinates": [ 114.273735, 30.570844 ] } },
{ "type": "Feature", "properties": { "name": "解放大道永清街" }, "geometry": { "type": "Point", "coordinates": [ 114.307157, 30.610269 ] } },
{ "type": "Feature", "properties": { "name": "解放大道解放公园" }, "geometry": { "type": "Point", "coordinates": [ 114.304844, 30.607157 ] } },
{ "type": "Feature", "properties": { "name": "解放大道劳动街" }, "geometry": { "type": "Point", "coordinates": [ 114.30052, 30.601479 ] } },
{ "type": "Feature", "properties": { "name": "三阳路地铁三阳路站" }, "geometry": { "type": "Point", "coordinates": [ 114.300067, 30.599185 ] } },
{ "type": "Feature", "properties": { "name": "中山大道三阳路" }, "geometry": { "type": "Point", "coordinates": [ 114.302698, 30.596435 ] } },
{ "type": "Feature", "properties": { "name": "胜利街一元路" }, "geometry": { "type": "Point", "coordinates": [ 114.302714, 30.592494 ] } },
{ "type": "Feature", "properties": { "name": "中山大道黄兴路" }, "geometry": { "type": "Point", "coordinates": [ 114.29835, 30.59067 ] } },
{ "type": "Feature", "properties": { "name": "中山大道大智路" }, "geometry": { "type": "Point", "coordinates": [ 114.29622, 30.587579 ] } },
{ "type": "Feature", "properties": { "name": "保华街南京路" }, "geometry": { "type": "Point", "coordinates": [ 114.292592, 30.583579 ] } },
{ "type": "Feature", "properties": { "name": "中山大道地铁江汉路站" }, "geometry": { "type": "Point", "coordinates": [ 114.2907, 30.579213 ] } },
{ "type": "Feature", "properties": { "name": "中山大道地铁六渡桥站" }, "geometry": { "type": "Point", "coordinates": [ 114.285178, 30.575451 ] } },
{ "type": "Feature", "properties": { "name": "中山大道民意四路" }, "geometry": { "type": "Point", "coordinates": [ 114.277945, 30.572331 ] } },
{ "type": "Feature", "properties": { "name": "中山大道地铁武胜路站" }, "geometry": { "type": "Point", "coordinates": [ 114.271, 30.569812 ] } },
{ "type": "Feature", "properties": { "name": "中山大道新华书店" }, "geometry": { "type": "Point", "coordinates": [ 114.266206, 30.569375 ] } },
{ "type": "Feature", "properties": { "name": "中山大道居仁门" }, "geometry": { "type": "Point", "coordinates": [ 114.260508, 30.569221 ] } },
{ "type": "Feature", "properties": { "name": "中山大道硚口" }, "geometry": { "type": "Point", "coordinates": [ 114.254431, 30.569661 ] } },
{ "type": "Feature", "properties": { "name": "硚口越秀财富中心站" }, "geometry": { "type": "Point", "coordinates": [ 114.250902, 30.571145 ] } },
{ "type": "Feature", "properties": { "name": "硚口路中山大道" }, "geometry": { "type": "Point", "coordinates": [ 114.251516, 30.568723 ] } },
{ "type": "Feature", "properties": { "name": "解放大道蓝天宾馆" }, "geometry": { "type": "Point", "coordinates": [ 114.25491, 30.577695 ] } },
{ "type": "Feature", "properties": { "name": "解放大道中山公园" }, "geometry": { "type": "Point", "coordinates": [ 114.272452, 30.581749 ] } },
{ "type": "Feature", "properties": { "name": "解放大道新华路" }, "geometry": { "type": "Point", "coordinates": [ 114.28065, 30.58417 ] } },
{ "type": "Feature", "properties": { "name": "解放大道循礼门" }, "geometry": { "type": "Point", "coordinates": [ 114.287538, 30.588739 ] } },
{ "type": "Feature", "properties": { "name": "解放大道西马路" }, "geometry": { "type": "Point", "coordinates": [ 114.290007, 30.591437 ] } },
{ "type": "Feature", "properties": { "name": "解放大道劳动街" }, "geometry": { "type": "Point", "coordinates": [ 114.300904, 30.601534 ] } },
{ "type": "Feature", "properties": { "name": "解放大道解放公园" }, "geometry": { "type": "Point", "coordinates": [ 114.305175, 30.607406 ] } },
{ "type": "Feature", "properties": { "name": "二七路二七横路" }, "geometry": { "type": "Point", "coordinates": [ 114.317491, 30.626254 ] } },
{ "type": "Feature", "properties": { "name": "解放大道二七路" }, "geometry": { "type": "Point", "coordinates": [ 114.31784, 30.624032 ] } },
{ "type": "Feature", "properties": { "name": "武昌火车站公交场站" }, "geometry": { "type": "Point", "coordinates": [ 114.314484, 30.528685 ] } },
{ "type": "Feature", "properties": { "name": "中山路武昌火车站" }, "geometry": { "type": "Point", "coordinates": [ 114.314536, 30.527348 ] } },
{ "type": "Feature", "properties": { "name": "丁字桥路洪山村" }, "geometry": { "type": "Point", "coordinates": [ 114.32874, 30.519747 ] } },
{ "type": "Feature", "properties": { "name": "文荟街丁字桥南路" }, "geometry": { "type": "Point", "coordinates": [ 114.326997, 30.509704 ] } },
{ "type": "Feature", "properties": { "name": "文荟街书城路" }, "geometry": { "type": "Point", "coordinates": [ 114.339384, 30.507561 ] } },
{ "type": "Feature", "properties": { "name": "文荟街荟秀路" }, "geometry": { "type": "Point", "coordinates": [ 114.34309, 30.506688 ] } },
{ "type": "Feature", "properties": { "name": "文荟街珞狮路" }, "geometry": { "type": "Point", "coordinates": [ 114.348377, 30.504488 ] } },
{ "type": "Feature", "properties": { "name": "文荟街桂湖路" }, "geometry": { "type": "Point", "coordinates": [ 114.357951, 30.503737 ] } },
{ "type": "Feature", "properties": { "name": "浅水湾路方家嘴" }, "geometry": { "type": "Point", "coordinates": [ 114.364006, 30.503965 ] } },
{ "type": "Feature", "properties": { "name": "卓刀泉南路省肿瘤医院" }, "geometry": { "type": "Point", "coordinates": [ 114.365775, 30.502475 ] } },
{ "type": "Feature", "properties": { "name": "卓刀泉南路桂子园路" }, "geometry": { "type": "Point", "coordinates": [ 114.367014, 30.498815 ] } },
{ "type": "Feature", "properties": { "name": "卓刀泉南路南湖北路" }, "geometry": { "type": "Point", "coordinates": [ 114.365547, 30.496128 ] } },
{ "type": "Feature", "properties": { "name": "白沙二路夹套河路" }, "geometry": { "type": "Point", "coordinates": [ 114.268607, 30.489086 ] } },
{ "type": "Feature", "properties": { "name": "夹套河路白沙二路" }, "geometry": { "type": "Point", "coordinates": [ 114.271699, 30.48882 ] } },
{ "type": "Feature", "properties": { "name": "夹套河路永佳路" }, "geometry": { "type": "Point", "coordinates": [ 114.27524, 30.491623 ] } },